data/ContactLocator_TLE_SAT_1.txt

Target: SAT

Pass Number     Observer     Time (UTCGregorian)          Azimuth (deg)     Elevation (deg)     Range (km)      
-----------     --------     ------------------------     -------------     ---------------     -----------     
1               GSC2         16 Jul 2025 01:12:47.430     285.936315        5.000000            2218.792826     
1               GSC2         16 Jul 2025 01:12:52.430     286.301841        5.339240            2188.952744     
1               GSC2         16 Jul 2025 01:12:57.430     286.677798        5.683223            2159.207629     
1               GSC2         16 Jul 2025 01:13:02.430     287.064628        6.032092            2129.562333     
1               GSC2         16 Jul 2025 01:13:07.430     287.462805        6.386000            2100.021368     
1               GSC2         16 Jul 2025 01:13:12.430     287.872820        6.745100            2070.590073     
1               GSC2         16 Jul 2025 01:13:17.430     288.295185        7.109542            2041.274295     
1               GSC2         16 Jul 2025 01:13:22.430     288.730444        7.479483            2012.079941     
1               GSC2         16 Jul 2025 01:13:27.430     289.179182        7.855089            1983.012653     
1               GSC2         16 Jul 2025 01:13:32.430     289.642003        8.236521            1954.078965     
1               GSC2         16 Jul 2025 01:13:37.430     290.119541        8.623940            1925.285984     
1               GSC2         16 Jul 2025 01:13:42.430     290.612470        9.017508            1896.640962     
1               GSC2         16 Jul 2025 01:13:47.430     291.121511        9.417396            1868.150974     
1               GSC2         16 Jul 2025 01:13:52.430     291.647413        9.823767            1839.824075     
1               GSC2         16 Jul 2025 01:13:57.430     292.190964        10.236777           1811.668976     
1               GSC2         16 Jul 2025 01:14:02.430     292.752996        10.656585           1783.694632     
1               GSC2         16 Jul 2025 01:14:07.430     293.334404        11.083350           1755.909950     
1               GSC2         16 Jul 2025 01:14:12.430     293.936115        11.517218           1728.324908     
1               GSC2         16 Jul 2025 01:14:17.430     294.559106        11.958324           1700.950251     
1               GSC2         16 Jul 2025 01:14:22.430     295.204408        12.406792           1673.797100     
1               GSC2         16 Jul 2025 01:14:27.430     295.873123        12.862744           1646.876669     
1               GSC2         16 Jul 2025 01:14:32.430     296.566401        13.326276           1620.201365     
1               GSC2         16 Jul 2025 01:14:37.430     297.285440        13.797461           1593.784497     
1               GSC2         16 Jul 2025 01:14:42.430     298.031512        14.276348           1567.639898     
1               GSC2         16 Jul 2025 01:14:47.430     298.805964        14.762967           1541.781663     
1               GSC2         16 Jul 2025 01:14:52.430     299.610198        15.257308           1516.225225     
1               GSC2         16 Jul 2025 01:14:57.430     300.445673        15.759315           1490.987059     
1               GSC2         16 Jul 2025 01:15:02.430     301.313922        16.268887           1466.084329     
1               GSC2         16 Jul 2025 01:15:07.430     302.216563        16.785880           1441.534662     
1               GSC2         16 Jul 2025 01:15:12.430     303.155263        17.310079           1417.357140     
1               GSC2         16 Jul 2025 01:15:17.430     304.131743        17.841194           1393.572035     
1               GSC2         16 Jul 2025 01:15:22.430     305.147792        18.378855           1370.200470     
1               GSC2         16 Jul 2025 01:15:27.430     306.205273        18.922613           1347.264189     
1               GSC2         16 Jul 2025 01:15:32.430     307.306073        19.471904           1324.786494     
1               GSC2         16 Jul 2025 01:15:37.430     308.452109        20.026046           1302.791959     
1               GSC2         16 Jul 2025 01:15:42.430     309.645326        20.584230           1281.306096     
1               GSC2         16 Jul 2025 01:15:47.430     310.887700        21.145518           1260.355123     
1               GSC2         16 Jul 2025 01:15:52.430     312.181171        21.708804           1239.966789     
1               GSC2         16 Jul 2025 01:15:57.430     313.527628        22.272813           1220.170053     
1               GSC2         16 Jul 2025 01:16:02.430     314.928902        22.836091           1200.994733     
1               GSC2         16 Jul 2025 01:16:07.430     316.386749        23.397001           1182.471245     
1               GSC2         16 Jul 2025 01:16:12.430     317.902756        23.953699           1164.631248     
1               GSC2         16 Jul 2025 01:16:17.430     319.478309        24.504125           1147.507284     
1               GSC2         16 Jul 2025 01:16:22.430     321.114561        25.046014           1131.132350     
1               GSC2         16 Jul 2025 01:16:27.430     322.812407        25.576902           1115.539580     
1               GSC2         16 Jul 2025 01:16:32.430     324.572350        26.094113           1100.762694     
1               GSC2         16 Jul 2025 01:16:37.430     326.394456        26.594783           1086.835510     
1               GSC2         16 Jul 2025 01:16:42.430     328.278313        27.075886           1073.791468     
1               GSC2         16 Jul 2025 01:16:47.430     330.222999        27.534268           1061.663243     
1               GSC2         16 Jul 2025 01:16:52.430     332.226941        27.966675           1050.482923     
1               GSC2         16 Jul 2025 01:16:57.430     334.287880        28.369806           1040.281477     
1               GSC2         16 Jul 2025 01:17:02.430     336.402863        28.740372           1031.088218     
1               GSC2         16 Jul 2025 01:17:07.430     338.568242        29.075170           1022.930415     
1               GSC2         16 Jul 2025 01:17:12.430     340.779586        29.371136           1015.833264     
1               GSC2         16 Jul 2025 01:17:17.430     343.031717        29.625430           1009.819378     
1               GSC2         16 Jul 2025 01:17:22.430     345.318783        29.835509           1004.908339     
1               GSC2         16 Jul 2025 01:17:27.430     347.634359        29.999202           1001.116415     
1               GSC2         16 Jul 2025 01:17:32.430     349.971447        30.114767           998.456480      
1               GSC2         16 Jul 2025 01:17:37.430     352.322617        30.180947           996.937677      
1               GSC2         16 Jul 2025 01:17:42.430     354.680182        30.197016           996.565220      
1               GSC2         16 Jul 2025 01:17:47.430     357.036373        30.162793           997.340390      
1               GSC2         16 Jul 2025 01:17:52.430     359.383404        30.078656           999.260507      
1               GSC2         16 Jul 2025 01:17:57.430     1.713652          29.945528           1002.318897     
1               GSC2         16 Jul 2025 01:18:02.430     4.019839          29.764845           1006.505051     
1               GSC2         16 Jul 2025 01:18:07.430     6.295187          29.538505           1011.804926     
1               GSC2         16 Jul 2025 01:18:12.430     8.533439          29.268824           1018.200985     
1               GSC2         16 Jul 2025 01:18:17.430     10.728968         28.958463           1025.672471     
1               GSC2         16 Jul 2025 01:18:22.430     12.876871         28.610350           1034.195812     
1               GSC2         16 Jul 2025 01:18:27.430     14.973022         28.227602           1043.745153     
1               GSC2         16 Jul 2025 01:18:32.430     17.013999         27.813464           1054.292356     
1               GSC2         16 Jul 2025 01:18:37.430     18.997092         27.371240           1065.807390     
1               GSC2         16 Jul 2025 01:18:42.430     20.920303         26.904222           1078.258876     
1               GSC2         16 Jul 2025 01:18:47.430     22.782322         26.415624           1091.614645     
1               GSC2         16 Jul 2025 01:18:52.430     24.582392         25.908564           1105.841567     
1               GSC2         16 Jul 2025 01:18:57.430     26.320272         25.386018           1120.905936     
1               GSC2         16 Jul 2025 01:19:02.430     27.996204         24.850782           1136.773990     
1               GSC2         16 Jul 2025 01:19:07.430     29.610856         24.305451           1153.412401     
1               GSC2         16 Jul 2025 01:19:12.430     31.165202         23.752423           1170.787872     
1               GSC2         16 Jul 2025 01:19:17.430     32.660478         23.193894           1188.867439     
1               GSC2         16 Jul 2025 01:19:22.430     34.098156         22.631844           1207.618926     
1               GSC2         16 Jul 2025 01:19:27.430     35.479905         22.068034           1227.011349     
1               GSC2         16 Jul 2025 01:19:32.430     36.807495         21.504041           1247.014270     
1               GSC2         16 Jul 2025 01:19:37.430     38.082775         20.941257           1267.598054     
1               GSC2         16 Jul 2025 01:19:42.430     39.307663         20.380893           1288.734244     
1               GSC2         16 Jul 2025 01:19:47.430     40.484129         19.823984           1310.395911     
1               GSC2         16 Jul 2025 01:19:52.430     41.614125         19.271428           1332.556830     
1               GSC2         16 Jul 2025 01:19:57.430     42.699582         18.723990           1355.191699     
1               GSC2         16 Jul 2025 01:20:02.430     43.742413         18.182306           1378.276487     
1               GSC2         16 Jul 2025 01:20:07.430     44.744513         17.646890           1401.788754     
1               GSC2         16 Jul 2025 01:20:12.430     45.707703         17.118167           1425.706696     
1               GSC2         16 Jul 2025 01:20:17.430     46.633745         16.596481           1450.009367     
1               GSC2         16 Jul 2025 01:20:22.430     47.524346         16.082092           1474.677021     
1               GSC2         16 Jul 2025 01:20:27.430     48.381167         15.575180           1499.691420     
1               GSC2         16 Jul 2025 01:20:32.430     49.205784         15.075881           1525.034808     
1               GSC2         16 Jul 2025 01:20:37.430     49.999700         14.584278           1550.690131     
1               GSC2         16 Jul 2025 01:20:42.430     50.764359         14.100411           1576.641401     
1               GSC2         16 Jul 2025 01:20:47.430     51.501150         13.624268           1602.874001     
1               GSC2         16 Jul 2025 01:20:52.430     52.211385         13.155816           1629.373616     
1               GSC2         16 Jul 2025 01:20:57.430     52.896305         12.695000           1656.126467     
1               GSC2         16 Jul 2025 01:21:02.430     53.557096         12.241735           1683.119683     
1               GSC2         16 Jul 2025 01:21:07.430     54.194897         11.795912           1710.341636     
1               GSC2         16 Jul 2025 01:21:12.430     54.810776         11.357411           1737.780819     
1               GSC2         16 Jul 2025 01:21:17.430     55.405743         10.926107           1765.426109     
1               GSC2         16 Jul 2025 01:21:22.430     55.980759         10.501858           1793.267152     
1               GSC2         16 Jul 2025 01:21:27.430     56.536747         10.084508           1821.294718     
1               GSC2         16 Jul 2025 01:21:32.430     57.074570         9.673903            1849.499548     
1               GSC2         16 Jul 2025 01:21:37.430     57.595044         9.269887            1877.872625     
1               GSC2         16 Jul 2025 01:21:42.430     58.098945         8.872299            1906.405604     
1               GSC2         16 Jul 2025 01:21:47.430     58.587017         8.480968            1935.091148     
1               GSC2         16 Jul 2025 01:21:52.430     59.059958         8.095731            1963.921774     
1               GSC2         16 Jul 2025 01:21:57.430     59.518425         7.716427            1992.890132     
1               GSC2         16 Jul 2025 01:22:02.430     59.963044         7.342896            2021.989454     
1               GSC2         16 Jul 2025 01:22:07.430     60.394418         6.974967            2051.213899     
1               GSC2         16 Jul 2025 01:22:12.430     60.813110         6.612484            2080.557376     
1               GSC2         16 Jul 2025 01:22:17.430     61.219651         6.255293            2110.013851     
1               GSC2         16 Jul 2025 01:22:22.430     61.614549         5.903242            2139.577793     
1               GSC2         16 Jul 2025 01:22:27.430     61.998292         5.556173            2169.244538     
1               GSC2         16 Jul 2025 01:22:32.430     62.371338         5.213941            2199.009090     
1               GSC2         16 Jul 2025 01:22:35.591     62.601869         5.000000            2217.875685     

2               GSC2         16 Jul 2025 02:55:35.136     295.479294        5.000000            2218.263524     
2               GSC2         16 Jul 2025 02:55:40.136     295.920682        5.324486            2189.713637     
2               GSC2         16 Jul 2025 02:55:45.136     296.374087        5.652820            2161.292503     
2               GSC2         16 Jul 2025 02:55:50.136     296.839980        5.985085            2133.005785     
2               GSC2         16 Jul 2025 02:55:55.136     297.318846        6.321358            2104.859940     
2               GSC2         16 Jul 2025 02:56:00.136     297.811192        6.661715            2076.861694     
2               GSC2         16 Jul 2025 02:56:05.136     298.317558        7.006233            2049.017539     
2               GSC2         16 Jul 2025 02:56:10.136     298.838506        7.354989            2021.334353     
2               GSC2         16 Jul 2025 02:56:15.136     299.374616        7.708046            1993.819849     
2               GSC2         16 Jul 2025 02:56:20.136     299.926492        8.065466            1966.482090     
2               GSC2         16 Jul 2025 02:56:25.136     300.494774        8.427309            1939.328981     
2               GSC2         16 Jul 2025 02:56:30.136     301.080132        8.793628            1912.368884     
2               GSC2         16 Jul 2025 02:56:35.136     301.683253        9.164462            1885.611063     
2               GSC2         16 Jul 2025 02:56:40.136     302.304852        9.539841            1859.065204     
2               GSC2         16 Jul 2025 02:56:45.136     302.945687        9.919789            1832.740941     
2               GSC2         16 Jul 2025 02:56:50.136     303.606545        10.304316           1806.648433     
2               GSC2         16 Jul 2025 02:56:55.136     304.288234        10.693412           1780.798827     
2               GSC2         16 Jul 2025 02:57:00.136     304.991591        11.087050           1755.203779     
2               GSC2         16 Jul 2025 02:57:05.136     305.717498        11.485188           1729.874987     
2               GSC2         16 Jul 2025 02:57:10.136     306.466869        11.887763           1704.824780     
2               GSC2         16 Jul 2025 02:57:15.136     307.240633        12.294680           1680.066543     
2               GSC2         16 Jul 2025 02:57:20.136     308.039750        12.705814           1655.614251     
2               GSC2         16 Jul 2025 02:57:25.136     308.865223        13.121017           1631.482045     
2               GSC2         16 Jul 2025 02:57:30.136     309.718082        13.540105           1607.684781     
2               GSC2         16 Jul 2025 02:57:35.136     310.599362        13.962845           1584.238427     
2               GSC2         16 Jul 2025 02:57:40.136     311.510123        14.388962           1561.159627     
2               GSC2         16 Jul 2025 02:57:45.136     312.451457        14.818139           1538.465282     
2               GSC2         16 Jul 2025 02:57:50.136     313.424467        15.250006           1516.173072     
2               GSC2         16 Jul 2025 02:57:55.136     314.430246        15.684127           1494.301815     
2               GSC2         16 Jul 2025 02:58:00.136     315.469883        16.120002           1472.871036     
2               GSC2         16 Jul 2025 02:58:05.136     316.544481        16.557068           1451.900574     
2               GSC2         16 Jul 2025 02:58:10.136     317.655121        16.994693           1431.411046     
2               GSC2         16 Jul 2025 02:58:15.136     318.802834        17.432153           1411.424154     
2               GSC2         16 Jul 2025 02:58:20.136     319.988607        17.868642           1391.962251     
2               GSC2         16 Jul 2025 02:58:25.136     321.213390        18.303275           1373.047960     
2               GSC2         16 Jul 2025 02:58:30.136     322.478062        18.735073           1354.704570     
2               GSC2         16 Jul 2025 02:58:35.136     323.783381        19.162956           1336.956254     
2               GSC2         16 Jul 2025 02:58:40.136     325.129996        19.585748           1319.827642     
2               GSC2         16 Jul 2025 02:58:45.136     326.518445        20.002181           1303.343421     
2               GSC2         16 Jul 2025 02:58:50.136     327.949107        20.410896           1287.528654     
2               GSC2         16 Jul 2025 02:58:55.136     329.422155        20.810432           1272.408884     
2               GSC2         16 Jul 2025 02:59:00.136     330.937553        21.199243           1258.009691     
2               GSC2         16 Jul 2025 02:59:05.136     332.495061        21.575713           1244.356306     
2               GSC2         16 Jul 2025 02:59:10.136     334.094182        21.938157           1231.473789     
2               GSC2         16 Jul 2025 02:59:15.136     335.734108        22.284834           1219.387049     
2               GSC2         16 Jul 2025 02:59:20.136     337.413729        22.613966           1208.120381     
2               GSC2         16 Jul 2025 02:59:25.136     339.131645        22.923764           1197.697087     
2               GSC2         16 Jul 2025 02:59:30.136     340.886122        23.212450           1188.139563     
2               GSC2         16 Jul 2025 02:59:35.136     342.675049        23.478271           1179.469206     
2               GSC2         16 Jul 2025 02:59:40.136     344.495966        23.719533           1171.706000     
2               GSC2         16 Jul 2025 02:59:45.136     346.346111        23.934639           1164.868182     
2               GSC2         16 Jul 2025 02:59:50.136     348.222388        24.122107           1158.972263     
2               GSC2         16 Jul 2025 02:59:55.136     350.121359        24.280598           1154.032899     
2               GSC2         16 Jul 2025 03:00:00.136     352.039308        24.408948           1150.062567     
2               GSC2         16 Jul 2025 03:00:05.136     353.972313        24.506195           1147.071369     
2               GSC2         16 Jul 2025 03:00:10.136     355.916256        24.571594           1145.067041     
2               GSC2         16 Jul 2025 03:00:15.136     357.866836        24.604638           1144.054848     
2               GSC2         16 Jul 2025 03:00:20.136     359.819662        24.605069           1144.037436     
2               GSC2         16 Jul 2025 03:00:25.136     1.770351          24.572883           1145.014824     
2               GSC2         16 Jul 2025 03:00:30.136     3.714547          24.508332           1146.984464     
2               GSC2         16 Jul 2025 03:00:35.136     5.647946          24.411914           1149.941195     
2               GSC2         16 Jul 2025 03:00:40.136     7.566388          24.284371           1153.877298     
2               GSC2         16 Jul 2025 03:00:45.136     9.465946          24.126658           1158.782706     
2               GSC2         16 Jul 2025 03:00:50.136     11.342931         23.939932           1164.645100     
2               GSC2         16 Jul 2025 03:00:55.136     13.193896         23.725527           1171.449910     
2               GSC2         16 Jul 2025 03:01:00.136     15.015703         23.484925           1179.180557     
2               GSC2         16 Jul 2025 03:01:05.136     16.805580         23.219721           1187.818821     
2               GSC2         16 Jul 2025 03:01:10.136     18.561091         22.931602           1197.344918     
2               GSC2         16 Jul 2025 03:01:15.136     20.280115         22.622318           1207.737515     
2               GSC2         16 Jul 2025 03:01:20.136     21.960874         22.293655           1218.974060     
2               GSC2         16 Jul 2025 03:01:25.136     23.601963         21.947400           1231.031248     
2               GSC2         16 Jul 2025 03:01:30.136     25.202290         21.585326           1243.885019     
2               GSC2         16 Jul 2025 03:01:35.136     26.761040         21.209176           1257.510502     
2               GSC2         16 Jul 2025 03:01:40.136     28.277678         20.820643           1271.882400     
2               GSC2         16 Jul 2025 03:01:45.136     29.751961         20.421346           1286.975463     
2               GSC2         16 Jul 2025 03:01:50.136     31.183871         20.012824           1302.764378     
2               GSC2         16 Jul 2025 03:01:55.136     32.573575         19.596542           1319.223619     
2               GSC2         16 Jul 2025 03:02:00.136     33.921422         19.173871           1336.327825     
2               GSC2         16 Jul 2025 03:02:05.136     35.227949         18.746079           1354.052270     
2               GSC2         16 Jul 2025 03:02:10.136     36.493821         18.314337           1372.372630     
2               GSC2         16 Jul 2025 03:02:15.136     37.719796         17.879729           1391.264736     
2               GSC2         16 Jul 2025 03:02:20.136     38.906726         17.443244           1410.704942     
2               GSC2         16 Jul 2025 03:02:25.136     40.055561         17.005770           1430.670587     
2               GSC2         16 Jul 2025 03:02:30.136     41.167308         16.568108           1451.139656     
2               GSC2         16 Jul 2025 03:02:35.136     42.242995         16.130982           1472.090442     
2               GSC2         16 Jul 2025 03:02:40.136     43.283684         15.695037           1493.501931     
2               GSC2         16 Jul 2025 03:02:45.136     44.290477         15.260835           1515.354245     
2               GSC2         16 Jul 2025 03:02:50.136     45.264482         14.828872           1537.628231     
2               GSC2         16 Jul 2025 03:02:55.136     46.206791         14.399584           1560.305063     
2               GSC2         16 Jul 2025 03:03:00.136     47.118490         13.973353           1583.366629     
2               GSC2         16 Jul 2025 03:03:05.136     48.000674         13.550495           1606.795995     
2               GSC2         16 Jul 2025 03:03:10.136     48.854417         13.131280           1630.576918     
2               GSC2         16 Jul 2025 03:03:15.136     49.680755         12.715942           1654.693417     
2               GSC2         16 Jul 2025 03:03:20.136     50.480704         12.304672           1679.130189     
2               GSC2         16 Jul 2025 03:03:25.136     51.255269         11.897621           1703.873058     
2               GSC2         16 Jul 2025 03:03:30.136     52.005423         11.494906           1728.908477     
2               GSC2         16 Jul 2025 03:03:35.136     52.732097         11.096624           1754.223050     
2               GSC2         16 Jul 2025 03:03:40.136     53.436192         10.702845           1779.803981     
2               GSC2         16 Jul 2025 03:03:45.136     54.118591         10.313611           1805.639539     
2               GSC2         16 Jul 2025 03:03:50.136     54.780146         9.928943            1831.718518     
2               GSC2         16 Jul 2025 03:03:55.136     55.421664         9.548852            1858.029768     
2               GSC2         16 Jul 2025 03:04:00.136     56.043920         9.173335            1884.562639     
2               GSC2         16 Jul 2025 03:04:05.136     56.647676         8.802367            1911.307480     
2               GSC2         16 Jul 2025 03:04:10.136     57.233658         8.435913            1938.255067     
2               GSC2         16 Jul 2025 03:04:15.136     57.802552         8.073935            1965.396127     
2               GSC2         16 Jul 2025 03:04:20.136     58.355020         7.716385            1992.721810     
2               GSC2         16 Jul 2025 03:04:25.136     58.891702         7.363203            2020.224183     
2               GSC2         16 Jul 2025 03:04:30.136     59.413215         7.014323            2047.895671     
2               GSC2         16 Jul 2025 03:04:35.136     59.920135         6.669679            2075.728551     
2               GSC2         16 Jul 2025 03:04:40.136     60.413020         6.329203            2103.715446     
2               GSC2         16 Jul 2025 03:04:45.136     60.892408         5.992816            2131.849841     
2               GSC2         16 Jul 2025 03:04:50.136     61.358816         5.660438            2160.125503     
2               GSC2         16 Jul 2025 03:04:55.136     61.812730         5.331991            2188.535979     
2               GSC2         16 Jul 2025 03:05:00.136     62.254613         5.007397            2217.075086     
2               GSC2         16 Jul 2025 03:05:00.250     62.264606         5.000000            2217.730793     

3               GSC2         16 Jul 2025 04:38:07.967     298.431411        5.000000            2218.060024     
3               GSC2         16 Jul 2025 04:38:12.967     298.844710        5.330446            2188.994473     
3               GSC2         16 Jul 2025 04:38:17.967     299.269455        5.665097            2160.044214     
3               GSC2         16 Jul 2025 04:38:22.967     299.706108        6.004058            2131.214739     
3               GSC2         16 Jul 2025 04:38:27.967     300.155162        6.347441            2102.511299     
3               GSC2         16 Jul 2025 04:38:32.967     300.617124        6.695352            2073.940049     
3               GSC2         16 Jul 2025 04:38:37.967     301.092522        7.047892            2045.507601     
3               GSC2         16 Jul 2025 04:38:42.967     301.581916        7.405167            2017.220607     
3               GSC2         16 Jul 2025 04:38:47.967     302.085899        7.767286            1989.085544     
3               GSC2         16 Jul 2025 04:38:52.967     302.605086        8.134348            1961.109862     
3               GSC2         16 Jul 2025 04:38:57.967     303.140115        8.506447            1933.301531     
3               GSC2         16 Jul 2025 04:39:02.967     303.691661        8.883676            1905.668641     
3               GSC2         16 Jul 2025 04:39:07.967     304.260442        9.266128            1878.219205     
3               GSC2         16 Jul 2025 04:39:12.967     304.847198        9.653885            1850.962267     
3               GSC2         16 Jul 2025 04:39:17.967     305.452699        10.047014           1823.907493     
3               GSC2         16 Jul 2025 04:39:22.967     306.077759        10.445579           1797.064749     
3               GSC2         16 Jul 2025 04:39:27.967     306.723237        10.849637           1770.443942     
3               GSC2         16 Jul 2025 04:39:32.967     307.390020        11.259225           1744.056099     
3               GSC2         16 Jul 2025 04:39:37.967     308.079032        11.674360           1717.912953     
3               GSC2         16 Jul 2025 04:39:42.967     308.791238        12.095044           1692.026553     
3               GSC2         16 Jul 2025 04:39:47.967     309.527661        12.521264           1666.409125     
3               GSC2         16 Jul 2025 04:39:52.967     310.289349        12.952975           1641.074098     
3               GSC2         16 Jul 2025 04:39:57.967     311.077386        13.390099           1616.035707     
3               GSC2         16 Jul 2025 04:40:02.967     311.892904        13.832529           1591.308638     
3               GSC2         16 Jul 2025 04:40:07.967     312.737087        14.280129           1566.907874     
3               GSC2         16 Jul 2025 04:40:12.967     313.611143        14.732712           1542.849693     
3               GSC2         16 Jul 2025 04:40:17.967     314.516308        15.190039           1519.151281     
3               GSC2         16 Jul 2025 04:40:22.967     315.453858        15.651823           1495.830376     
3               GSC2         16 Jul 2025 04:40:27.967     316.425116        16.117728           1472.905150     
3               GSC2         16 Jul 2025 04:40:32.967     317.431405        16.587340           1450.395107     
3               GSC2         16 Jul 2025 04:40:37.967     318.474061        17.060169           1428.320732     
3               GSC2         16 Jul 2025 04:40:42.967     319.554432        17.535650           1406.703130     
3               GSC2         16 Jul 2025 04:40:47.967     320.673887        18.013142           1385.563896     
3               GSC2         16 Jul 2025 04:40:52.967     321.833755        18.491897           1364.925951     
3               GSC2         16 Jul 2025 04:40:57.967     323.035331        18.971062           1344.813151     
3               GSC2         16 Jul 2025 04:41:02.967     324.279871        19.449681           1325.249949     
3               GSC2         16 Jul 2025 04:41:07.967     325.568592        19.926692           1306.261235     
3               GSC2         16 Jul 2025 04:41:12.967     326.902597        20.400901           1287.873042     
3               GSC2         16 Jul 2025 04:41:17.967     328.282871        20.870988           1270.112148     
3               GSC2         16 Jul 2025 04:41:22.967     329.710270        21.335507           1253.005706     
3               GSC2         16 Jul 2025 04:41:27.967     331.185511        21.792896           1236.581040     
3               GSC2         16 Jul 2025 04:41:32.967     332.709078        22.241454           1220.866215     
3               GSC2         16 Jul 2025 04:41:37.967     334.281214        22.679354           1205.889572     
3               GSC2         16 Jul 2025 04:41:42.967     335.901904        23.104664           1191.679340     
3               GSC2         16 Jul 2025 04:41:47.967     337.570861        23.515356           1178.263385     
3               GSC2         16 Jul 2025 04:41:52.967     339.287420        23.909306           1165.669584     
3               GSC2         16 Jul 2025 04:41:57.967     341.050536        24.284325           1153.925328     
3               GSC2         16 Jul 2025 04:42:02.967     342.858775        24.638187           1143.057104     
3               GSC2         16 Jul 2025 04:42:07.967     344.710310        24.968664           1133.090226     
3               GSC2         16 Jul 2025 04:42:12.967     346.602830        25.273542           1124.049010     
3               GSC2         16 Jul 2025 04:42:17.967     348.533559        25.550668           1115.956295     
3               GSC2         16 Jul 2025 04:42:22.967     350.499283        25.797990           1108.833045     
3               GSC2         16 Jul 2025 04:42:27.967     352.496384        26.013605           1102.698115     
3               GSC2         16 Jul 2025 04:42:32.967     354.520786        26.195782           1097.568299     
3               GSC2         16 Jul 2025 04:42:37.967     356.568018        26.343013           1093.457934     
3               GSC2         16 Jul 2025 04:42:42.967     358.633300        26.454048           1090.378634     
3               GSC2         16 Jul 2025 04:42:47.967     0.711620          26.527929           1088.339181     
3               GSC2         16 Jul 2025 04:42:52.967     2.797721          26.564005           1087.345517     
3               GSC2         16 Jul 2025 04:42:57.967     4.886215          26.561955           1087.400546     
3               GSC2         16 Jul 2025 04:43:02.967     6.971697          26.521798           1088.504081     
3               GSC2         16 Jul 2025 04:43:07.967     9.048843          26.443891           1090.652928     
3               GSC2         16 Jul 2025 04:43:12.967     11.112416         26.328915           1093.840889     
3               GSC2         16 Jul 2025 04:43:17.967     13.157371         26.177867           1098.058797     
3               GSC2         16 Jul 2025 04:43:22.967     15.178963         25.992025           1103.294702     
3               GSC2         16 Jul 2025 04:43:27.967     17.172815         25.772919           1109.534140     
3               GSC2         16 Jul 2025 04:43:32.967     19.134893         25.522298           1116.760128     
3               GSC2         16 Jul 2025 04:43:37.967     21.061571         25.242092           1124.953396     
3               GSC2         16 Jul 2025 04:43:42.967     22.949685         24.934363           1134.092735     
3               GSC2         16 Jul 2025 04:43:47.967     24.796561         24.601268           1144.155387     
3               GSC2         16 Jul 2025 04:43:52.967     26.599934         24.245022           1155.116945     
3               GSC2         16 Jul 2025 04:43:57.967     28.357975         23.867863           1166.951684     
3               GSC2         16 Jul 2025 04:44:02.967     30.069297         23.472015           1179.632985     
3               GSC2         16 Jul 2025 04:44:07.967     31.732940         23.059652           1193.133737     
3               GSC2         16 Jul 2025 04:44:12.967     33.348280         22.632887           1207.426073     
3               GSC2         16 Jul 2025 04:44:17.967     34.915017         22.193749           1222.481712     
3               GSC2         16 Jul 2025 04:44:22.967     36.433171         21.744161           1238.272398     
3               GSC2         16 Jul 2025 04:44:27.967     37.903051         21.285924           1254.770230     
3               GSC2         16 Jul 2025 04:44:32.967     39.325164         20.820724           1271.947223     
3               GSC2         16 Jul 2025 04:44:37.967     40.700207         20.350124           1289.775627     
3               GSC2         16 Jul 2025 04:44:42.967     42.029055         19.875554           1308.228322     
3               GSC2         16 Jul 2025 04:44:47.967     43.312741         19.398309           1327.279098     
3               GSC2         16 Jul 2025 04:44:52.967     44.552378         18.919569           1346.902028     
3               GSC2         16 Jul 2025 04:44:57.967     45.749155         18.440397           1367.071774     
3               GSC2         16 Jul 2025 04:45:02.967     46.904339         17.961737           1387.763946     
3               GSC2         16 Jul 2025 04:45:07.967     48.019258         17.484417           1408.955334     
3               GSC2         16 Jul 2025 04:45:12.967     49.095243         17.009175           1430.623142     
3               GSC2         16 Jul 2025 04:45:17.967     50.133632         16.536655           1452.745279     
3               GSC2         16 Jul 2025 04:45:22.967     51.135777         16.067413           1475.300708     
3               GSC2         16 Jul 2025 04:45:27.967     52.103038         15.601919           1498.269650     
3               GSC2         16 Jul 2025 04:45:32.967     53.036737         15.140577           1521.632715     
3               GSC2         16 Jul 2025 04:45:37.967     53.938166         14.683732           1545.371190     
3               GSC2         16 Jul 2025 04:45:42.967     54.808600         14.231663           1569.467406     
3               GSC2         16 Jul 2025 04:45:47.967     55.649295         13.784592           1593.904909     
3               GSC2         16 Jul 2025 04:45:52.967     56.461454         13.342702           1618.667534     
3               GSC2         16 Jul 2025 04:45:57.967     57.246236         12.906135           1643.739701     
3               GSC2         16 Jul 2025 04:46:02.967     58.004767         12.474995           1669.106788     
3               GSC2         16 Jul 2025 04:46:07.967     58.738150         12.049345           1694.755312     
3               GSC2         16 Jul 2025 04:46:12.967     59.447426         11.629228           1720.671942     
3               GSC2         16 Jul 2025 04:46:17.967     60.133593         11.214666           1746.843820     
3               GSC2         16 Jul 2025 04:46:22.967     60.797616         10.805653           1773.258937     
3               GSC2         16 Jul 2025 04:46:27.967     61.440431         10.402159           1799.906337     
3               GSC2         16 Jul 2025 04:46:32.967     62.062918         10.004148           1826.775077     
3               GSC2         16 Jul 2025 04:46:37.967     62.665919         9.611571            1853.854576     
3               GSC2         16 Jul 2025 04:46:42.967     63.250241         9.224362            1881.134996     
3               GSC2         16 Jul 2025 04:46:47.967     63.816668         8.842443            1908.607475     
3               GSC2         16 Jul 2025 04:46:52.967     64.365936         8.465733            1936.263027     
3               GSC2         16 Jul 2025 04:46:57.967     64.898744         8.094147            1964.092928     
3               GSC2         16 Jul 2025 04:47:02.967     65.415762         7.727590            1992.089127     
3               GSC2         16 Jul 2025 04:47:07.967     65.917643         7.365961            2020.244445     
3               GSC2         16 Jul 2025 04:47:12.967     66.404995         7.009158            2048.551498     
3               GSC2         16 Jul 2025 04:47:17.967     66.878397         6.657083            2077.003061     
3               GSC2         16 Jul 2025 04:47:22.967     67.338404         6.309629            2105.592517     
3               GSC2         16 Jul 2025 04:47:27.967     67.785556         5.966685            2134.314055     
3               GSC2         16 Jul 2025 04:47:32.967     68.220357         5.628147            2163.161568     
3               GSC2         16 Jul 2025 04:47:37.967     68.643284         5.293912            2192.129044     
3               GSC2         16 Jul 2025 04:47:42.417     69.010045         5.000000            2218.004287     

4               GSC2         16 Jul 2025 06:20:25.203     294.458604        5.000000            2218.218533     
4               GSC2         16 Jul 2025 06:20:30.203     294.745477        5.351347            2187.334395     
4               GSC2         16 Jul 2025 06:20:35.203     295.040795        5.708211            2156.515826     
4               GSC2         16 Jul 2025 06:20:40.203     295.344939        6.070791            2125.766789     
4               GSC2         16 Jul 2025 06:20:45.203     295.658318        6.439305            2095.090827     
4               GSC2         16 Jul 2025 06:20:50.203     295.981365        6.813976            2064.491773     
4               GSC2         16 Jul 2025 06:20:55.203     296.314534        7.195033            2033.974232     
4               GSC2         16 Jul 2025 06:21:00.203     296.658306        7.582710            2003.543026     
4               GSC2         16 Jul 2025 06:21:05.203     297.013198        7.977262            1973.202628     
4               GSC2         16 Jul 2025 06:21:10.203     297.379760        8.378951            1942.957863     
4               GSC2         16 Jul 2025 06:21:15.203     297.758568        8.788043            1912.814391     
4               GSC2         16 Jul 2025 06:21:20.203     298.150238        9.204813            1882.778159     
4               GSC2         16 Jul 2025 06:21:25.203     298.555428        9.629554            1852.854856     
4               GSC2         16 Jul 2025 06:21:30.203     298.974843        10.062572           1823.050609     
4               GSC2         16 Jul 2025 06:21:35.203     299.409225        10.504170           1793.372466     
4               GSC2         16 Jul 2025 06:21:40.203     299.859364        10.954663           1763.827854     
4               GSC2         16 Jul 2025 06:21:45.203     300.326114        11.414387           1734.424066     
4               GSC2         16 Jul 2025 06:21:50.203     300.810383        11.883682           1705.168945     
4               GSC2         16 Jul 2025 06:21:55.203     301.313136        12.362890           1676.071367     
4               GSC2         16 Jul 2025 06:22:00.203     301.835401        12.852359           1647.140725     
4               GSC2         16 Jul 2025 06:22:05.203     302.378290        13.352452           1618.386432     
4               GSC2         16 Jul 2025 06:22:10.203     302.942989        13.863537           1589.818605     
4               GSC2         16 Jul 2025 06:22:15.203     303.530760        14.385974           1561.448545     
4               GSC2         16 Jul 2025 06:22:20.203     304.142953        14.920122           1533.288252     
4               GSC2         16 Jul 2025 06:22:25.203     304.781026        15.466345           1505.349939     
4               GSC2         16 Jul 2025 06:22:30.203     305.446538        16.025002           1477.646738     
4               GSC2         16 Jul 2025 06:22:35.203     306.141150        16.596426           1450.193158     
4               GSC2         16 Jul 2025 06:22:40.203     306.866640        17.180934           1423.004637     
4               GSC2         16 Jul 2025 06:22:45.203     307.624927        17.778827           1396.097090     
4               GSC2         16 Jul 2025 06:22:50.203     308.418065        18.390374           1369.487596     
4               GSC2         16 Jul 2025 06:22:55.203     309.248237        19.015789           1343.194870     
4               GSC2         16 Jul 2025 06:23:00.203     310.117779        19.655232           1317.238825     
4               GSC2         16 Jul 2025 06:23:05.203     311.029204        20.308808           1291.640173     
4               GSC2         16 Jul 2025 06:23:10.203     311.985192        20.976539           1266.421078     
4               GSC2         16 Jul 2025 06:23:15.203     312.988580        21.658333           1241.605620     
4               GSC2         16 Jul 2025 06:23:20.203     314.042386        22.353978           1217.219379     
4               GSC2         16 Jul 2025 06:23:25.203     315.149829        23.063131           1193.289055     
4               GSC2         16 Jul 2025 06:23:30.203     316.314307        23.785277           1169.843091     
4               GSC2         16 Jul 2025 06:23:35.203     317.539378        24.519687           1146.912078     
4               GSC2         16 Jul 2025 06:23:40.203     318.828767        25.265399           1124.528347     
4               GSC2         16 Jul 2025 06:23:45.203     320.186369        26.021195           1102.725571     
4               GSC2         16 Jul 2025 06:23:50.203     321.616206        26.785551           1081.539312     
4               GSC2         16 Jul 2025 06:23:55.203     323.122364        27.556579           1061.007311     
4               GSC2         16 Jul 2025 06:24:00.203     324.708962        28.332000           1041.169005     
4               GSC2         16 Jul 2025 06:24:05.203     326.380118        29.109122           1022.065098     
4               GSC2         16 Jul 2025 06:24:10.203     328.139836        29.884781           1003.737898     
4               GSC2         16 Jul 2025 06:24:15.203     329.991865        30.655294           986.231408      
4               GSC2         16 Jul 2025 06:24:20.203     331.939599        31.416453           969.590703      
4               GSC2         16 Jul 2025 06:24:25.203     333.985954        32.163523           953.861348      
4               GSC2         16 Jul 2025 06:24:30.203     336.133158        32.891237           939.089454      
4               GSC2         16 Jul 2025 06:24:35.203     338.382502        33.593801           925.321442      
4               GSC2         16 Jul 2025 06:24:40.203     340.734163        34.264969           912.603230      
4               GSC2         16 Jul 2025 06:24:45.203     343.187013        34.898143           900.979460      
4               GSC2         16 Jul 2025 06:24:50.203     345.738361        35.486474           890.493228      
4               GSC2         16 Jul 2025 06:24:55.203     348.383703        36.023005           881.185553      
4               GSC2         16 Jul 2025 06:25:00.203     351.116618        36.500877           873.094444      
4               GSC2         16 Jul 2025 06:25:05.203     353.928731        36.913553           866.254097      
4               GSC2         16 Jul 2025 06:25:10.203     356.809667        37.255036           860.694484      
4               GSC2         16 Jul 2025 06:25:15.203     359.747115        37.520100           856.440772      
4               GSC2         16 Jul 2025 06:25:20.203     2.727106          37.704525           853.512620      
4               GSC2         16 Jul 2025 06:25:25.203     5.734414          37.805293           851.923719      
4               GSC2         16 Jul 2025 06:25:30.203     8.752935          37.820726           851.681617      
4               GSC2         16 Jul 2025 06:25:35.203     11.766147         37.750560           852.787498      
4               GSC2         16 Jul 2025 06:25:40.203     14.757702         37.595974           855.236076      
4               GSC2         16 Jul 2025 06:25:45.203     17.712008         37.359523           859.015809      
4               GSC2         16 Jul 2025 06:25:50.203     20.614631         37.045014           864.109186      
4               GSC2         16 Jul 2025 06:25:55.203     23.452630         36.657331           870.492998      
4               GSC2         16 Jul 2025 06:26:00.203     26.214887         36.202227           878.138864      
4               GSC2         16 Jul 2025 06:26:05.203     28.892307         35.686075           887.014012      
4               GSC2         16 Jul 2025 06:26:10.203     31.477803         35.115638           897.081826      
4               GSC2         16 Jul 2025 06:26:15.203     33.966195         34.497859           908.302325      
4               GSC2         16 Jul 2025 06:26:20.203     36.354135         33.839651           920.632964      
4               GSC2         16 Jul 2025 06:26:25.203     38.639966         33.147720           934.029573      
4               GSC2         16 Jul 2025 06:26:30.203     40.823444         32.428442           948.446771      
4               GSC2         16 Jul 2025 06:26:35.203     42.905486         31.687778           963.838291      
4               GSC2         16 Jul 2025 06:26:40.203     44.887984         30.931197           980.157700      
4               GSC2         16 Jul 2025 06:26:45.203     46.773634         30.163626           997.359184      
4               GSC2         16 Jul 2025 06:26:50.203     48.565699         29.389456           1015.397642     
4               GSC2         16 Jul 2025 06:26:55.203     50.267813         28.612552           1034.228683     
4               GSC2         16 Jul 2025 06:27:00.203     51.883884         27.836269           1053.809171     
4               GSC2         16 Jul 2025 06:27:05.203     53.418003         27.063465           1074.097810     
4               GSC2         16 Jul 2025 06:27:10.203     54.874314         26.296555           1095.054910     
4               GSC2         16 Jul 2025 06:27:15.203     56.256920         25.537561           1116.642138     
4               GSC2         16 Jul 2025 06:27:20.203     57.569852         24.788142           1138.822918     
4               GSC2         16 Jul 2025 06:27:25.203     58.817061         24.049619           1161.562906     
4               GSC2         16 Jul 2025 06:27:30.203     60.002347         23.323037           1184.829524     
4               GSC2         16 Jul 2025 06:27:35.203     61.129326         22.609202           1208.591584     
4               GSC2         16 Jul 2025 06:27:40.203     62.201443         21.908711           1232.819625     
4               GSC2         16 Jul 2025 06:27:45.203     63.221985         21.221963           1257.486334     
4               GSC2         16 Jul 2025 06:27:50.203     64.194051         20.549212           1282.565992     
4               GSC2         16 Jul 2025 06:27:55.203     65.120541         19.890587           1308.034006     
4               GSC2         16 Jul 2025 06:28:00.203     66.004181         19.246112           1333.867263     
4               GSC2         16 Jul 2025 06:28:05.203     66.847544         18.615711           1360.044540     
4               GSC2         16 Jul 2025 06:28:10.203     67.653038         17.999235           1386.545923     
4               GSC2         16 Jul 2025 06:28:15.203     68.422898         17.396489           1413.352282     
4               GSC2         16 Jul 2025 06:28:20.203     69.159216         16.807227           1440.445680     
4               GSC2         16 Jul 2025 06:28:25.203     69.863960         16.231160           1467.809799     
4               GSC2         16 Jul 2025 06:28:30.203     70.538964         15.667970           1495.429314     
4               GSC2         16 Jul 2025 06:28:35.203     71.185929         15.117329           1523.289403     
4               GSC2         16 Jul 2025 06:28:40.203     71.806442         14.578892           1551.376150     
4               GSC2         16 Jul 2025 06:28:45.203     72.401999         14.052297           1579.677029     
4               GSC2         16 Jul 2025 06:28:50.203     72.973994         13.537177           1608.180259     
4               GSC2         16 Jul 2025 06:28:55.203     73.523719         13.033172           1636.874301     
4               GSC2         16 Jul 2025 06:29:00.203     74.052379         12.539923           1665.748310     
4               GSC2         16 Jul 2025 06:29:05.203     74.561114         12.057064           1694.792639     
4               GSC2         16 Jul 2025 06:29:10.203     75.050987         11.584237           1723.998191     
4               GSC2         16 Jul 2025 06:29:15.203     75.522984         11.121098           1753.355912     
4               GSC2         16 Jul 2025 06:29:20.203     75.978028         10.667310           1782.857278     
4               GSC2         16 Jul 2025 06:29:25.203     76.416992         10.222536           1812.494819     
4               GSC2         16 Jul 2025 06:29:30.203     76.840693         9.786450            1842.261458     
4               GSC2         16 Jul 2025 06:29:35.203     77.249891         9.358744            1872.150019     
4               GSC2         16 Jul 2025 06:29:40.203     77.645297         8.939117            1902.153729     
4               GSC2         16 Jul 2025 06:29:45.203     78.027588         8.527272            1932.266763     
4               GSC2         16 Jul 2025 06:29:50.203     78.397399         8.122923            1962.483563     
4               GSC2         16 Jul 2025 06:29:55.203     78.755317         7.725801            1992.798385     
4               GSC2         16 Jul 2025 06:30:00.203     79.101899         7.335646            2023.205776     
4               GSC2         16 Jul 2025 06:30:05.203     79.437674         6.952202            2053.701157     
4               GSC2         16 Jul 2025 06:30:10.203     79.763139         6.575223            2084.280133     
4               GSC2         16 Jul 2025 06:30:15.203     80.078756         6.204478            2114.938037     
4               GSC2         16 Jul 2025 06:30:20.203     80.384964         5.839745            2145.670431     
4               GSC2         16 Jul 2025 06:30:25.203     80.682179         5.480806            2176.473682     
4               GSC2         16 Jul 2025 06:30:30.203     80.970796         5.127451            2207.344289     
4               GSC2         16 Jul 2025 06:30:32.026     81.073934         5.000000            2218.612875     

5               GSC2         16 Jul 2025 08:02:39.961     285.117195        5.000000            2218.649963     
5               GSC2         16 Jul 2025 08:02:44.961     285.204846        5.368017            2186.315623     
5               GSC2         16 Jul 2025 08:02:49.961     285.295163        5.742657            2154.005021     
5               GSC2         16 Jul 2025 08:02:54.961     285.388279        6.124210            2121.720419     
5               GSC2         16 Jul 2025 08:02:59.961     285.484332        6.512985            2089.464177     
5               GSC2         16 Jul 2025 08:03:04.961     285.583475        6.909316            2057.238188     
5               GSC2         16 Jul 2025 08:03:09.961     285.685868        7.313556            2025.044468     
5               GSC2         16 Jul 2025 08:03:14.961     285.791683        7.726074            1992.885752     
5               GSC2         16 Jul 2025 08:03:19.961     285.901104        8.147259            1960.764916     
5               GSC2         16 Jul 2025 08:03:24.961     286.014328        8.577532            1928.684409     
5               GSC2         16 Jul 2025 08:03:29.961     286.131568        9.017344            1896.646851     
5               GSC2         16 Jul 2025 08:03:34.961     286.253053        9.467163            1864.655621     
5               GSC2         16 Jul 2025 08:03:39.961     286.379026        9.927485            1832.714291     
5               GSC2         16 Jul 2025 08:03:44.961     286.509753        10.398853           1800.826075     
5               GSC2         16 Jul 2025 08:03:49.961     286.645521        10.881839           1768.994413     
5               GSC2         16 Jul 2025 08:03:54.961     286.786638        11.377049           1737.223576     
5               GSC2         16 Jul 2025 08:03:59.961     286.933437        11.885127           1705.518102     
5               GSC2         16 Jul 2025 08:04:04.961     287.086282        12.406769           1673.882263     
5               GSC2         16 Jul 2025 08:04:09.961     287.245568        12.942721           1642.320644     
5               GSC2         16 Jul 2025 08:04:14.961     287.411723        13.493772           1610.838767     
5               GSC2         16 Jul 2025 08:04:19.961     287.585213        14.060760           1579.442526     
5               GSC2         16 Jul 2025 08:04:24.961     287.766549        14.644599           1548.137686     
5               GSC2         16 Jul 2025 08:04:29.961     287.956290        15.246266           1516.930466     
5               GSC2         16 Jul 2025 08:04:34.961     288.155049        15.866796           1485.828159     
5               GSC2         16 Jul 2025 08:04:39.961     288.363495        16.507299           1454.838613     
5               GSC2         16 Jul 2025 08:04:44.961     288.582371        17.168977           1423.969735     
5               GSC2         16 Jul 2025 08:04:49.961     288.812494        17.853123           1393.230101     
5               GSC2         16 Jul 2025 08:04:54.961     289.054768        18.561110           1362.629587     
5               GSC2         16 Jul 2025 08:04:59.961     289.310193        19.294411           1332.178886     
5               GSC2         16 Jul 2025 08:05:04.961     289.579884        20.054622           1301.889040     
5               GSC2         16 Jul 2025 08:05:09.961     289.865087        20.843459           1271.772093     
5               GSC2         16 Jul 2025 08:05:14.961     290.167188        21.662747           1241.841734     
5               GSC2         16 Jul 2025 08:05:19.961     290.487744        22.514441           1212.112868     
5               GSC2         16 Jul 2025 08:05:24.961     290.828509        23.400655           1182.601207     
5               GSC2         16 Jul 2025 08:05:29.961     291.191466        24.323654           1153.323965     
5               GSC2         16 Jul 2025 08:05:34.961     291.578854        25.285840           1124.300543     
5               GSC2         16 Jul 2025 08:05:39.961     291.993221        26.289772           1095.552155     
5               GSC2         16 Jul 2025 08:05:44.961     292.437480        27.338195           1067.101533     
5               GSC2         16 Jul 2025 08:05:49.961     292.914975        28.434017           1038.973663     
5               GSC2         16 Jul 2025 08:05:54.961     293.429544        29.580288           1011.196529     
5               GSC2         16 Jul 2025 08:05:59.961     293.985633        30.780201           983.800833      
5               GSC2         16 Jul 2025 08:06:04.961     294.588415        32.037104           956.819818      
5               GSC2         16 Jul 2025 08:06:09.961     295.243939        33.354445           930.290071      
5               GSC2         16 Jul 2025 08:06:14.961     295.959304        34.735702           904.252299      
5               GSC2         16 Jul 2025 08:06:19.961     296.742901        36.184335           878.751167      
5               GSC2         16 Jul 2025 08:06:24.961     297.604720        37.703728           853.835200      
5               GSC2         16 Jul 2025 08:06:29.961     298.556725        39.297028           829.557598      
5               GSC2         16 Jul 2025 08:06:34.961     299.613315        40.966946           805.976955      
5               GSC2         16 Jul 2025 08:06:39.961     300.791965        42.715543           783.157062      
5               GSC2         16 Jul 2025 08:06:44.961     302.114049        44.543956           761.166739      
5               GSC2         16 Jul 2025 08:06:49.961     303.605883        46.451958           740.080353      
5               GSC2         16 Jul 2025 08:06:54.961     305.300059        48.437377           719.978117      
5               GSC2         16 Jul 2025 08:06:59.961     307.237218        50.495420           700.945407      
5               GSC2         16 Jul 2025 08:07:04.961     309.468334        52.617803           683.071948      
5               GSC2         16 Jul 2025 08:07:09.961     312.057464        54.791520           666.451359      
