data/ContactLocator_TLE_SAT_2.txt

Target: SAT

Pass Number     Observer     Time (UTCGregorian)          Azimuth (deg)     Elevation (deg)     Range (km)      
-----------     --------     ------------------------     -------------     ---------------     -----------     
1               GSC2         16 Jul 2025 00:00:59.671     276.164964        5.000000            2219.282326     
1               GSC2         16 Jul 2025 00:01:04.671     276.415299        5.355600            2188.015259     
1               GSC2         16 Jul 2025 00:01:09.671     276.673153        5.716994            2156.803035     
1               GSC2         16 Jul 2025 00:01:14.671     276.938870        6.084404            2125.649194     
1               GSC2         16 Jul 2025 00:01:19.671     277.212818        6.458064            2094.557462     
1               GSC2         16 Jul 2025 00:01:24.671     277.495391        6.838223            2063.531224     
1               GSC2         16 Jul 2025 00:01:29.671     277.787008        7.225146            2032.573969     
1               GSC2         16 Jul 2025 00:01:34.671     278.088110        7.619101            2001.690013     
1               GSC2         16 Jul 2025 00:01:39.671     278.399165        8.020367            1970.883911     
1               GSC2         16 Jul 2025 00:01:44.671     278.720676        8.429245            1940.159944     
1               GSC2         16 Jul 2025 00:01:49.671     279.053184        8.846049            1909.522567     
1               GSC2         16 Jul 2025 00:01:54.671     279.397255        9.271101            1878.977112     
1               GSC2         16 Jul 2025 00:01:59.671     279.753494        9.704736            1848.529243     
1               GSC2         16 Jul 2025 00:02:04.671     280.122554        10.147312           1818.184424     
1               GSC2         16 Jul 2025 00:02:09.671     280.505137        10.599201           1787.948386     
1               GSC2         16 Jul 2025 00:02:14.671     280.901983        11.060787           1757.827829     
1               GSC2         16 Jul 2025 00:02:19.671     281.313885        11.532468           1727.829880     
1               GSC2         16 Jul 2025 00:02:24.671     281.741700        12.014662           1697.961598     
1               GSC2         16 Jul 2025 00:02:29.671     282.186352        12.507810           1668.230416     
1               GSC2         16 Jul 2025 00:02:34.671     282.648820        13.012357           1638.644874     
1               GSC2         16 Jul 2025 00:02:39.671     283.130158        13.528765           1609.214069     
1               GSC2         16 Jul 2025 00:02:44.671     283.631508        14.057515           1579.947198     
1               GSC2         16 Jul 2025 00:02:49.671     284.154101        14.599109           1550.854005     
1               GSC2         16 Jul 2025 00:02:54.671     284.699252        15.154047           1521.945502     
1               GSC2         16 Jul 2025 00:02:59.671     285.268377        15.722844           1493.233461     
1               GSC2         16 Jul 2025 00:03:04.671     285.863016        16.306025           1464.729967     
1               GSC2         16 Jul 2025 00:03:09.671     286.484833        16.904128           1436.447888     
1               GSC2         16 Jul 2025 00:03:14.671     287.135612        17.517677           1408.401585     
1               GSC2         16 Jul 2025 00:03:19.671     287.817280        18.147191           1380.606447     
1               GSC2         16 Jul 2025 00:03:24.671     288.531934        18.793188           1353.078462     
1               GSC2         16 Jul 2025 00:03:29.671     289.281845        19.456168           1325.834708     
1               GSC2         16 Jul 2025 00:03:34.671     290.069452        20.136590           1298.894061     
1               GSC2         16 Jul 2025 00:03:39.671     290.897395        20.834871           1272.276751     
1               GSC2         16 Jul 2025 00:03:44.671     291.768541        21.551380           1246.003988     
1               GSC2         16 Jul 2025 00:03:49.671     292.685998        22.286418           1220.098446     
1               GSC2         16 Jul 2025 00:03:54.671     293.653102        23.040177           1194.584967     
1               GSC2         16 Jul 2025 00:03:59.671     294.673452        23.812729           1169.490128     
1               GSC2         16 Jul 2025 00:04:04.671     295.750943        24.604008           1144.841916     
1               GSC2         16 Jul 2025 00:04:09.671     296.889772        25.413771           1120.670196     
1               GSC2         16 Jul 2025 00:04:14.671     298.094417        26.241539           1097.007353     
1               GSC2         16 Jul 2025 00:04:19.671     299.369658        27.086562           1073.887875     
1               GSC2         16 Jul 2025 00:04:24.671     300.720609        27.947789           1051.348025     
1               GSC2         16 Jul 2025 00:04:29.671     302.152684        28.823794           1029.426245     
1               GSC2         16 Jul 2025 00:04:34.671     303.671543        29.712700           1008.163656     
1               GSC2         16 Jul 2025 00:04:39.671     305.283072        30.612122           987.603595      
1               GSC2         16 Jul 2025 00:04:44.671     306.993349        31.519112           967.791200      
1               GSC2         16 Jul 2025 00:04:49.671     308.808537        32.430073           948.773638      
1               GSC2         16 Jul 2025 00:04:54.671     310.734710        33.340677           930.600334      
1               GSC2         16 Jul 2025 00:04:59.671     312.777709        34.245812           913.322333      
1               GSC2         16 Jul 2025 00:05:04.671     314.942970        35.139549           896.991671      
1               GSC2         16 Jul 2025 00:05:09.671     317.235229        36.015108           881.661257      
1               GSC2         16 Jul 2025 00:05:14.671     319.658132        36.864844           867.384696      
1               GSC2         16 Jul 2025 00:05:19.671     322.213898        37.680313           854.215320      
1               GSC2         16 Jul 2025 00:05:24.671     324.902949        38.452384           842.205290      
1               GSC2         16 Jul 2025 00:05:29.671     327.723441        39.171390           831.405047      
1               GSC2         16 Jul 2025 00:05:34.671     330.670767        39.827351           821.862686      
1               GSC2         16 Jul 2025 00:05:39.671     333.737237        40.410289           813.622780      
1               GSC2         16 Jul 2025 00:05:44.671     336.911890        40.910591           806.725364      
1               GSC2         16 Jul 2025 00:05:49.671     340.180373        41.319410           801.205226      
1               GSC2         16 Jul 2025 00:05:54.671     343.524999        41.629079           797.091187      
1               GSC2         16 Jul 2025 00:05:59.671     346.925205        41.833523           794.405209      
1               GSC2         16 Jul 2025 00:06:04.671     350.358261        41.928601           793.161809      
1               GSC2         16 Jul 2025 00:06:09.671     353.800080        41.912348           793.367800      
1               GSC2         16 Jul 2025 00:06:14.671     357.226137        41.785097           795.022055      
1               GSC2         16 Jul 2025 00:06:19.671     0.612573          41.549466           798.115475      
1               GSC2         16 Jul 2025 00:06:24.671     3.937220          41.210183           802.631324      
1               GSC2         16 Jul 2025 00:06:29.671     7.180359          40.773815           808.545701      
1               GSC2         16 Jul 2025 00:06:34.671     10.325218         40.248416           815.827998      
1               GSC2         16 Jul 2025 00:06:39.671     13.358358         39.643108           824.441669      
1               GSC2         16 Jul 2025 00:06:44.671     16.269797         38.967648           834.345282      
1               GSC2         16 Jul 2025 00:06:49.671     19.052830         38.232036           845.493366      
1               GSC2         16 Jul 2025 00:06:54.671     21.703668         37.446196           857.837026      
1               GSC2         16 Jul 2025 00:06:59.671     24.221117         36.619676           871.324985      
1               GSC2         16 Jul 2025 00:07:04.671     26.606178         35.761419           885.904691      
1               GSC2         16 Jul 2025 00:07:09.671     28.861572         34.879628           901.522963      
1               GSC2         16 Jul 2025 00:07:14.671     30.991282         33.981710           918.126276      
1               GSC2         16 Jul 2025 00:07:19.671     33.000235         33.074215           935.661580      
1               GSC2         16 Jul 2025 00:07:24.671     34.894024         32.162826           954.077131      
1               GSC2         16 Jul 2025 00:07:29.671     36.678614         31.252405           973.322701      
1               GSC2         16 Jul 2025 00:07:34.671     38.360108         30.347070           993.349397      
1               GSC2         16 Jul 2025 00:07:39.671     39.944625         29.450240           1014.110217     
1               GSC2         16 Jul 2025 00:07:44.671     41.438204         28.564686           1035.560596     
1               GSC2         16 Jul 2025 00:07:49.671     42.846702         27.692622           1057.658275     
1               GSC2         16 Jul 2025 00:07:54.671     44.175700         26.835795           1080.362785     
1               GSC2         16 Jul 2025 00:07:59.671     45.430504         25.995532           1103.635861     
1               GSC2         16 Jul 2025 00:08:04.671     46.616138         25.172785           1127.441839     
1               GSC2         16 Jul 2025 00:08:09.671     47.737319         24.368205           1151.747335     
1               GSC2         16 Jul 2025 00:08:14.671     48.798436         23.582203           1176.520570     
1               GSC2         16 Jul 2025 00:08:19.671     49.803575         22.814983           1201.731731     
1               GSC2         16 Jul 2025 00:08:24.671     50.756553         22.066562           1227.353347     
1               GSC2         16 Jul 2025 00:08:29.671     51.660908         21.336815           1253.359879     
1               GSC2         16 Jul 2025 00:08:34.671     52.519904         20.625521           1279.726982     
1               GSC2         16 Jul 2025 00:08:39.671     53.336560         19.932372           1306.431881     
1               GSC2         16 Jul 2025 00:08:44.671     54.113682         19.256977           1333.453777     
1               GSC2         16 Jul 2025 00:08:49.671     54.853863         18.598892           1360.773394     
1               GSC2         16 Jul 2025 00:08:54.671     55.559491         17.957650           1388.372234     
1               GSC2         16 Jul 2025 00:08:59.671     56.232770         17.332758           1416.232988     
1               GSC2         16 Jul 2025 00:09:04.671     56.875749         16.723691           1444.339975     
1               GSC2         16 Jul 2025 00:09:09.671     57.490326         16.129915           1472.678691     
1               GSC2         16 Jul 2025 00:09:14.671     58.078247         15.550906           1501.235049     
1               GSC2         16 Jul 2025 00:09:19.671     58.641126         14.986143           1529.995849     
1               GSC2         16 Jul 2025 00:09:24.671     59.180470         14.435095           1558.949238     
1               GSC2         16 Jul 2025 00:09:29.671     59.697675         13.897243           1588.084259     
1               GSC2         16 Jul 2025 00:09:34.671     60.194028         13.372090           1617.390108     
1               GSC2         16 Jul 2025 00:09:39.671     60.670725         12.859149           1646.856624     
1               GSC2         16 Jul 2025 00:09:44.671     61.128884         12.357941           1676.474785     
1               GSC2         16 Jul 2025 00:09:49.671     61.569545         11.867998           1706.236261     
1               GSC2         16 Jul 2025 00:09:54.671     61.993668         11.388880           1736.132670     
1               GSC2         16 Jul 2025 00:09:59.671     62.402150         10.920163           1766.156099     
1               GSC2         16 Jul 2025 00:10:04.671     62.795830         10.461429           1796.299618     
1               GSC2         16 Jul 2025 00:10:09.671     63.175494         10.012277           1826.556840     
1               GSC2         16 Jul 2025 00:10:14.671     63.541869         9.572330            1856.921178     
1               GSC2         16 Jul 2025 00:10:19.671     63.895634         9.141226            1887.386386     
1               GSC2         16 Jul 2025 00:10:24.671     64.237429         8.718613            1917.947082     
1               GSC2         16 Jul 2025 00:10:29.671     64.567856         8.304150            1948.598333     
1               GSC2         16 Jul 2025 00:10:34.671     64.887472         7.897520            1979.334886     
1               GSC2         16 Jul 2025 00:10:39.671     65.196798         7.498422            2010.151737     
1               GSC2         16 Jul 2025 00:10:44.671     65.496331         7.106559            2041.044669     
1               GSC2         16 Jul 2025 00:10:49.671     65.786535         6.721644            2072.009834     
1               GSC2         16 Jul 2025 00:10:54.671     66.067844         6.343416            2103.042980     
1               GSC2         16 Jul 2025 00:10:59.671     66.340664         5.971621            2134.140043     
1               GSC2         16 Jul 2025 00:11:04.671     66.605382         5.606012            2165.297684     
1               GSC2         16 Jul 2025 00:11:09.671     66.862365         5.246351            2196.512872     
1               GSC2         16 Jul 2025 00:11:13.143     67.036433         5.000000            2218.219418     

2               GSC2         16 Jul 2025 01:43:48.653     288.909967        5.000000            2218.635015     
2               GSC2         16 Jul 2025 01:43:53.653     289.304581        5.333980            2189.254262     
2               GSC2         16 Jul 2025 01:43:58.653     289.710271        5.672377            2159.980853     
2               GSC2         16 Jul 2025 01:44:03.653     290.127494        6.015312            2130.819910     
2               GSC2         16 Jul 2025 01:44:08.653     290.556736        6.362913            2101.776446     
2               GSC2         16 Jul 2025 01:44:13.653     290.998499        6.715303            2072.856377     
2               GSC2         16 Jul 2025 01:44:18.653     291.453306        7.072602            2044.066013     
2               GSC2         16 Jul 2025 01:44:23.653     291.921716        7.434938            2015.411597     
2               GSC2         16 Jul 2025 01:44:28.653     292.404320        7.802440            1986.899333     
2               GSC2         16 Jul 2025 01:44:33.653     292.901729        8.175231            1958.536397     
2               GSC2         16 Jul 2025 01:44:38.653     293.414584        8.553431            1930.330419     
2               GSC2         16 Jul 2025 01:44:43.653     293.943563        8.937160            1902.289055     
2               GSC2         16 Jul 2025 01:44:48.653     294.489389        9.326542            1874.420004     
2               GSC2         16 Jul 2025 01:44:53.653     295.052806        9.721686            1846.732015     
2               GSC2         16 Jul 2025 01:44:58.653     295.634596        10.122697           1819.234382     
2               GSC2         16 Jul 2025 01:45:03.653     296.235584        10.529673           1791.936515     
2               GSC2         16 Jul 2025 01:45:08.653     296.856649        10.942711           1764.847995     
2               GSC2         16 Jul 2025 01:45:13.653     297.498697        11.361887           1737.979534     
2               GSC2         16 Jul 2025 01:45:18.653     298.162673        11.787262           1711.342489     
2               GSC2         16 Jul 2025 01:45:23.653     298.849579        12.218887           1684.948463     
2               GSC2         16 Jul 2025 01:45:28.653     299.560473        12.656797           1658.809357     
2               GSC2         16 Jul 2025 01:45:33.653     300.296445        13.100997           1632.938303     
2               GSC2         16 Jul 2025 01:45:38.653     301.058630        13.551465           1607.349202     
2               GSC2         16 Jul 2025 01:45:43.653     301.848221        14.008154           1582.056335     
2               GSC2         16 Jul 2025 01:45:48.653     302.666475        14.470986           1557.074427     
2               GSC2         16 Jul 2025 01:45:53.653     303.514675        14.939836           1532.419541     
2               GSC2         16 Jul 2025 01:45:58.653     304.394152        15.414531           1508.108622     
2               GSC2         16 Jul 2025 01:46:03.653     305.306290        15.894852           1484.159143     
2               GSC2         16 Jul 2025 01:46:08.653     306.252532        16.380526           1460.589157     
2               GSC2         16 Jul 2025 01:46:13.653     307.234337        16.871208           1437.418141     
2               GSC2         16 Jul 2025 01:46:18.653     308.253193        17.366474           1414.666547     
2               GSC2         16 Jul 2025 01:46:23.653     309.310627        17.865828           1392.355469     
2               GSC2         16 Jul 2025 01:46:28.653     310.408200        18.368686           1370.506678     
2               GSC2         16 Jul 2025 01:46:33.653     311.547454        18.874358           1349.143377     
2               GSC2         16 Jul 2025 01:46:38.653     312.729920        19.382042           1328.289775     
2               GSC2         16 Jul 2025 01:46:43.653     313.957121        19.890823           1307.970738     
2               GSC2         16 Jul 2025 01:46:48.653     315.230557        20.399669           1288.211790     
2               GSC2         16 Jul 2025 01:46:53.653     316.551637        20.907400           1269.039770     
2               GSC2         16 Jul 2025 01:46:58.653     317.921676        21.412693           1250.482373     
2               GSC2         16 Jul 2025 01:47:03.653     319.341888        21.914082           1232.567787     
2               GSC2         16 Jul 2025 01:47:08.653     320.813357        22.409954           1215.324639     
2               GSC2         16 Jul 2025 01:47:13.653     322.336951        22.898534           1198.782499     
2               GSC2         16 Jul 2025 01:47:18.653     323.913304        23.377889           1182.971369     
2               GSC2         16 Jul 2025 01:47:23.653     325.542807        23.845945           1167.921294     
2               GSC2         16 Jul 2025 01:47:28.653     327.225560        24.300494           1153.662232     
2               GSC2         16 Jul 2025 01:47:33.653     328.961274        24.739195           1140.224347     
2               GSC2         16 Jul 2025 01:47:38.653     330.749252        25.159600           1127.637477     
2               GSC2         16 Jul 2025 01:47:43.653     332.588378        25.559185           1115.930690     
2               GSC2         16 Jul 2025 01:47:48.653     334.477083        25.935383           1105.132090     
2               GSC2         16 Jul 2025 01:47:53.653     336.413248        26.285606           1095.268910     
2               GSC2         16 Jul 2025 01:47:58.653     338.394211        26.607298           1086.366972     
2               GSC2         16 Jul 2025 01:48:03.653     340.416790        26.897981           1078.450258     
2               GSC2         16 Jul 2025 01:48:08.653     342.477287        27.155307           1071.540693     
2               GSC2         16 Jul 2025 01:48:13.653     344.571435        27.377102           1065.658113     
2               GSC2         16 Jul 2025 01:48:18.653     346.694461        27.561420           1060.819790     
2               GSC2         16 Jul 2025 01:48:23.653     348.841180        27.706593           1057.040145     
2               GSC2         16 Jul 2025 01:48:28.653     351.006052        27.811276           1054.330607     
2               GSC2         16 Jul 2025 01:48:33.653     353.183195        27.874477           1052.699536     
2               GSC2         16 Jul 2025 01:48:38.653     355.366512        27.895591           1052.151982     
2               GSC2         16 Jul 2025 01:48:43.653     357.549827        27.874414           1052.689610     
2               GSC2         16 Jul 2025 01:48:48.653     359.726996        27.811148           1054.310753     
2               GSC2         16 Jul 2025 01:48:53.653     1.891927          27.706400           1057.010385     
2               GSC2         16 Jul 2025 01:48:58.653     4.038731          27.561161           1060.780141     
2               GSC2         16 Jul 2025 01:49:03.653     6.161840          27.376778           1065.608539     
2               GSC2         16 Jul 2025 01:49:08.653     8.256094          27.154915           1071.481215     
2               GSC2         16 Jul 2025 01:49:13.653     10.316730         26.897519           1078.380923     
2               GSC2         16 Jul 2025 01:49:18.653     12.339469         26.606764           1086.287817     
2               GSC2         16 Jul 2025 01:49:23.653     14.320588         26.285004           1095.179858     
2               GSC2         16 Jul 2025 01:49:28.653     16.256931         25.934708           1105.033166     
2               GSC2         16 Jul 2025 01:49:33.653     18.145840         25.558435           1115.821966     
2               GSC2         16 Jul 2025 01:49:38.653     19.985190         25.158774           1127.518991     
2               GSC2         16 Jul 2025 01:49:43.653     21.773385         24.738296           1140.095970     
2               GSC2         16 Jul 2025 01:49:48.653     23.509333         24.299520           1153.523991     
2               GSC2         16 Jul 2025 01:49:53.653     25.192344         23.844894           1167.773268     
2               GSC2         16 Jul 2025 01:49:58.653     26.822121         23.376761           1182.813584     
2               GSC2         16 Jul 2025 01:50:03.653     28.398742         22.897334           1198.614775     
2               GSC2         16 Jul 2025 01:50:08.653     29.922619         22.408682           1215.146991     
2               GSC2         16 Jul 2025 01:50:13.653     31.394390         21.912736           1232.380289     
2               GSC2         16 Jul 2025 01:50:18.653     32.814917         21.411274           1250.285037     
2               GSC2         16 Jul 2025 01:50:23.653     34.185267         20.905915           1268.832362     
2               GSC2         16 Jul 2025 01:50:28.653     35.506672         20.398119           1287.994308     
2               GSC2         16 Jul 2025 01:50:33.653     36.780451         19.889206           1307.743246     
2               GSC2         16 Jul 2025 01:50:38.653     38.008007         19.380360           1328.052266     
2               GSC2         16 Jul 2025 01:50:43.653     39.190824         18.872620           1348.895566     
2               GSC2         16 Jul 2025 01:50:48.653     40.330442         18.366892           1370.248545     
2               GSC2         16 Jul 2025 01:50:53.653     41.428395         17.863978           1392.087070     
2               GSC2         16 Jul 2025 01:50:58.653     42.486222         17.364571           1414.387852     
2               GSC2         16 Jul 2025 01:51:03.653     43.505470         16.869259           1437.128824     
2               GSC2         16 Jul 2025 01:51:08.653     44.487679         16.378533           1460.289182     
2               GSC2         16 Jul 2025 01:51:13.653     45.434340         15.892815           1483.848551     
2               GSC2         16 Jul 2025 01:51:18.653     46.346911         15.412453           1507.787368     
2               GSC2         16 Jul 2025 01:51:23.653     47.226820         14.937725           1532.087266     
2               GSC2         16 Jul 2025 01:51:28.653     48.075465         14.468842           1556.731077     
2               GSC2         16 Jul 2025 01:51:33.653     48.894178         14.005978           1581.701942     
2               GSC2         16 Jul 2025 01:51:38.653     49.684242         13.549260           1606.983707     
2               GSC2         16 Jul 2025 01:51:43.653     50.446902         13.098770           1632.561317     
2               GSC2         16 Jul 2025 01:51:48.653     51.183360         12.654549           1658.420811     
2               GSC2         16 Jul 2025 01:51:53.653     51.894756         12.216619           1684.548385     
2               GSC2         16 Jul 2025 01:51:58.653     52.582176         11.784976           1710.930812     
2               GSC2         16 Jul 2025 01:52:03.653     53.246671         11.359590           1737.555841     
2               GSC2         16 Jul 2025 01:52:08.653     53.889248         10.940405           1764.412210     
2               GSC2         16 Jul 2025 01:52:13.653     54.510858         10.527357           1791.488660     
2               GSC2         16 Jul 2025 01:52:18.653     55.112405         10.120374           1818.774380     
2               GSC2         16 Jul 2025 01:52:23.653     55.694757         9.719363            1846.259432     
2               GSC2         16 Jul 2025 01:52:28.653     56.258750         9.324218            1873.934756     
2               GSC2         16 Jul 2025 01:52:33.653     56.805165         8.934837            1901.791163     
2               GSC2         16 Jul 2025 01:52:38.653     57.334747         8.551110            1929.819800     
2               GSC2         16 Jul 2025 01:52:43.653     57.848211         8.172920            1958.012596     
2               GSC2         16 Jul 2025 01:52:48.653     58.346241         7.800138            1986.362264     
2               GSC2         16 Jul 2025 01:52:53.653     58.829481         7.432645            2014.861279     
2               GSC2         16 Jul 2025 01:52:58.653     59.298540         7.070321            2043.502355     
2               GSC2         16 Jul 2025 01:53:03.653     59.754003         6.713039            2072.278918     
2               GSC2         16 Jul 2025 01:53:08.653     60.196434         6.360667            2101.185098     
2               GSC2         16 Jul 2025 01:53:13.653     60.626359         6.013084            2130.214686     
2               GSC2         16 Jul 2025 01:53:18.653     61.044277         5.670168            2159.361660     
2               GSC2         16 Jul 2025 01:53:23.653     61.450670         5.331796            2188.620629     
2               GSC2         16 Jul 2025 01:53:28.620     61.843464         5.000000            2217.795485     

3               GSC2         16 Jul 2025 03:26:33.618     296.937282        5.000000            2218.174850     
3               GSC2         16 Jul 2025 03:26:38.618     297.381514        5.323882            2189.678694     
3               GSC2         16 Jul 2025 03:26:43.618     297.837808        5.651575            2161.312797     
3               GSC2         16 Jul 2025 03:26:48.618     298.306642        5.983161            2133.082671     
3               GSC2         16 Jul 2025 03:26:53.618     298.788501        6.318716            2104.994735     
3               GSC2         16 Jul 2025 03:26:58.618     299.283891        6.658312            2077.055804     
3               GSC2         16 Jul 2025 03:27:03.618     299.793348        7.002022            2049.272640     
3               GSC2         16 Jul 2025 03:27:08.618     300.317438        7.349919            2021.651982     
3               GSC2         16 Jul 2025 03:27:13.618     300.856741        7.702067            1994.201516     
3               GSC2         16 Jul 2025 03:27:18.618     301.411858        8.058522            1966.929386     
3               GSC2         16 Jul 2025 03:27:23.618     301.983425        8.419338            1939.843778     
3               GSC2         16 Jul 2025 03:27:28.618     302.572114        8.784566            1912.952907     
3               GSC2         16 Jul 2025 03:27:33.618     303.178610        9.154242            1886.266022     
3               GSC2         16 Jul 2025 03:27:38.618     303.803627        9.528389            1859.792900     
3               GSC2         16 Jul 2025 03:27:43.618     304.447913        9.907025            1833.543428     
3               GSC2         16 Jul 2025 03:27:48.618     305.112257        10.290158           1807.527649     
3               GSC2         16 Jul 2025 03:27:53.618     305.797464        10.677772           1781.756684     
3               GSC2         16 Jul 2025 03:27:58.618     306.504365        11.069833           1756.242271     
3               GSC2         16 Jul 2025 03:28:03.618     307.233830        11.466292           1730.996367     
3               GSC2         16 Jul 2025 03:28:08.618     307.986771        11.867081           1706.031169     
3               GSC2         16 Jul 2025 03:28:13.618     308.764113        12.272099           1681.360039     
3               GSC2         16 Jul 2025 03:28:18.618     309.566804        12.681215           1656.997029     
3               GSC2         16 Jul 2025 03:28:23.618     310.395832        13.094270           1632.956511     
3               GSC2         16 Jul 2025 03:28:28.618     311.252219        13.511074           1609.253211     
3               GSC2         16 Jul 2025 03:28:33.618     312.136992        13.931390           1585.903057     
3               GSC2         16 Jul 2025 03:28:38.618     313.051193        14.354934           1562.922748     
3               GSC2         16 Jul 2025 03:28:43.618     313.995891        14.781377           1540.329382     
3               GSC2         16 Jul 2025 03:28:48.618     314.972177        15.210346           1518.140488     
3               GSC2         16 Jul 2025 03:28:53.618     315.981127        15.641398           1496.374825     
3               GSC2         16 Jul 2025 03:28:58.618     317.023806        16.074026           1475.051933     
3               GSC2         16 Jul 2025 03:29:03.618     318.101284        16.507658           1454.191794     
3               GSC2         16 Jul 2025 03:29:08.618     319.214621        16.941657           1433.814841     
3               GSC2         16 Jul 2025 03:29:13.618     320.364823        17.375297           1413.942666     
3               GSC2         16 Jul 2025 03:29:18.618     321.552844        17.807769           1394.597585     
3               GSC2         16 Jul 2025 03:29:23.618     322.779590        18.238180           1375.802280     
3               GSC2         16 Jul 2025 03:29:28.618     324.045910        18.665555           1357.579804     
3               GSC2         16 Jul 2025 03:29:33.618     325.352530        19.088816           1339.954154     
3               GSC2         16 Jul 2025 03:29:38.618     326.700055        19.506790           1322.949834     
3               GSC2         16 Jul 2025 03:29:43.618     328.088969        19.918214           1306.591495     
3               GSC2         16 Jul 2025 03:29:48.618     329.519620        20.321740           1290.903884     
3               GSC2         16 Jul 2025 03:29:53.618     330.992138        20.715920           1275.912283     
3               GSC2         16 Jul 2025 03:29:58.618     332.506444        21.099226           1261.642050     
3               GSC2         16 Jul 2025 03:30:03.618     334.062241        21.470057           1248.118257     
3               GSC2         16 Jul 2025 03:30:08.618     335.659003        21.826758           1235.365569     
3               GSC2         16 Jul 2025 03:30:13.618     337.295888        22.167614           1223.408545     
3               GSC2         16 Jul 2025 03:30:18.618     338.971750        22.490880           1212.271160     
3               GSC2         16 Jul 2025 03:30:23.618     340.685148        22.794803           1201.976447     
3               GSC2         16 Jul 2025 03:30:28.618     342.434335        23.077644           1192.546343     
3               GSC2         16 Jul 2025 03:30:33.618     344.217192        23.337694           1184.001840     
3               GSC2         16 Jul 2025 03:30:38.618     346.031253        23.573307           1176.362541     
3               GSC2         16 Jul 2025 03:30:43.618     347.873744        23.782929           1169.646339     
3               GSC2         16 Jul 2025 03:30:48.618     349.741595        23.965127           1163.869292     
3               GSC2         16 Jul 2025 03:30:53.618     351.631403        24.118612           1159.045651     
3               GSC2         16 Jul 2025 03:30:58.618     353.539485        24.242266           1155.187525     
3               GSC2         16 Jul 2025 03:31:03.618     355.461953        24.335169           1152.304676     
3               GSC2         16 Jul 2025 03:31:08.618     357.394758        24.396618           1150.404471     
3               GSC2         16 Jul 2025 03:31:13.618     359.333676        24.426142           1149.491862     
3               GSC2         16 Jul 2025 03:31:18.618     1.274389          24.423512           1149.569224     
3               GSC2         16 Jul 2025 03:31:23.618     3.212581          24.388748           1150.636322     
3               GSC2         16 Jul 2025 03:31:28.618     5.143998          24.322119           1152.690401     
3               GSC2         16 Jul 2025 03:31:33.618     7.064428          24.224135           1155.726148     
3               GSC2         16 Jul 2025 03:31:38.618     8.969803          24.095535           1159.735729     
3               GSC2         16 Jul 2025 03:31:43.618     10.856268         23.937275           1164.708964     
3               GSC2         16 Jul 2025 03:31:48.618     12.720233         23.750497           1170.633519     
3               GSC2         16 Jul 2025 03:31:53.618     14.558337         23.536517           1177.494859     
3               GSC2         16 Jul 2025 03:31:58.618     16.367515         23.296794           1185.276454     
3               GSC2         16 Jul 2025 03:32:03.618     18.145046         23.032898           1193.960099     
3               GSC2         16 Jul 2025 03:32:08.618     19.888566         22.746482           1203.526176     
3               GSC2         16 Jul 2025 03:32:13.618     21.596007         22.439262           1213.953534     
3               GSC2         16 Jul 2025 03:32:18.618     23.265633         22.112987           1225.219794     
3               GSC2         16 Jul 2025 03:32:23.618     24.896057         21.769410           1237.301748     
3               GSC2         16 Jul 2025 03:32:28.618     26.486224         21.410266           1250.175620     
3               GSC2         16 Jul 2025 03:32:33.618     28.035338         21.037260           1263.816813     
3               GSC2         16 Jul 2025 03:32:38.618     29.542874         20.652049           1278.200258     
3               GSC2         16 Jul 2025 03:32:43.618     31.008578         20.256222           1293.300827     
3               GSC2         16 Jul 2025 03:32:48.618     32.432441         19.851285           1309.093546     
3               GSC2         16 Jul 2025 03:32:53.618     33.814627         19.438672           1325.553186     
3               GSC2         16 Jul 2025 03:32:58.618     35.155473         19.019726           1342.654621     
3               GSC2         16 Jul 2025 03:33:03.618     36.455487         18.595694           1360.373219     
3               GSC2         16 Jul 2025 03:33:08.618     37.715330         18.167724           1378.685002     
3               GSC2         16 Jul 2025 03:33:13.618     38.935742         17.736880           1397.566085     
3               GSC2         16 Jul 2025 03:33:18.618     40.117554         17.304132           1416.993023     
3               GSC2         16 Jul 2025 03:33:23.618     41.261685         16.870358           1436.943200     
3               GSC2         16 Jul 2025 03:33:28.618     42.369127         16.436343           1457.394921     
3               GSC2         16 Jul 2025 03:33:33.618     43.440890         16.002801           1478.326734     
3               GSC2         16 Jul 2025 03:33:38.618     44.478012         15.570367           1499.717777     
3               GSC2         16 Jul 2025 03:33:43.618     45.481564         15.139600           1521.548160     
3               GSC2         16 Jul 2025 03:33:48.618     46.452641         14.710987           1543.799021     
3               GSC2         16 Jul 2025 03:33:53.618     47.392316         14.284961           1566.451745     
3               GSC2         16 Jul 2025 03:33:58.618     48.301655         13.861898           1589.488331     
3               GSC2         16 Jul 2025 03:34:03.618     49.181726         13.442116           1612.891773     
3               GSC2         16 Jul 2025 03:34:08.618     50.033590         13.025883           1636.646092     
3               GSC2         16 Jul 2025 03:34:13.618     50.858271         12.613429           1660.735485     
3               GSC2         16 Jul 2025 03:34:18.618     51.656766         12.204948           1685.144714     
3               GSC2         16 Jul 2025 03:34:23.618     52.430057         11.800593           1709.859493     
3               GSC2         16 Jul 2025 03:34:28.618     53.179111         11.400480           1734.866507     
3               GSC2         16 Jul 2025 03:34:33.618     53.904845         11.004707           1760.152511     
3               GSC2         16 Jul 2025 03:34:38.618     54.608148         10.613347           1785.704747     
3               GSC2         16 Jul 2025 03:34:43.618     55.289885         10.226445           1811.511330     
3               GSC2         16 Jul 2025 03:34:48.618     55.950901         9.844023            1837.561277     
3               GSC2         16 Jul 2025 03:34:53.618     56.591996         9.466094            1863.843563     
3               GSC2         16 Jul 2025 03:34:58.618     57.213936         9.092658            1890.347550     
3               GSC2         16 Jul 2025 03:35:03.618     57.817466         8.723694            1917.063410     
3               GSC2         16 Jul 2025 03:35:08.618     58.403310         8.359168            1943.982124     
3               GSC2         16 Jul 2025 03:35:13.618     58.972148         7.999043            1971.094532     
3               GSC2         16 Jul 2025 03:35:18.618     59.524633         7.643277            1998.391778     
3               GSC2         16 Jul 2025 03:35:23.618     60.061396         7.291812            2025.865731     
3               GSC2         16 Jul 2025 03:35:28.618     60.583050         6.944583            2053.509015     
3               GSC2         16 Jul 2025 03:35:33.618     61.090169         6.601527            2081.314007     
3               GSC2         16 Jul 2025 03:35:38.618     61.583303         6.262578            2109.273314     
3               GSC2         16 Jul 2025 03:35:43.618     62.062983         5.927662            2137.380204     
3               GSC2         16 Jul 2025 03:35:48.618     62.529725         5.596699            2165.628642     
3               GSC2         16 Jul 2025 03:35:53.618     62.984010         5.269613            2194.012264     
3               GSC2         16 Jul 2025 03:35:57.784     63.353329         5.000000            2217.759509     

4               GSC2         16 Jul 2025 05:09:01.736     298.022693        5.000000            2218.067212     
4               GSC2         16 Jul 2025 05:09:06.736     298.412036        5.335098            2188.596925     
4               GSC2         16 Jul 2025 05:09:11.736     298.812320        5.674691            2159.230762     
4               GSC2         16 Jul 2025 05:09:16.736     299.223994        6.018899            2129.974145     
4               GSC2         16 Jul 2025 05:09:21.736     299.647533        6.367851            2100.832583     
4               GSC2         16 Jul 2025 05:09:26.736     300.083446        6.721680            2071.811234     
4               GSC2         16 Jul 2025 05:09:31.736     300.532261        7.080520            2042.916000     
4               GSC2         16 Jul 2025 05:09:36.736     300.994528        7.444499            2014.153406     
4               GSC2         16 Jul 2025 05:09:41.736     301.470829        7.813747            1985.530138     
4               GSC2         16 Jul 2025 05:09:46.736     301.961783        8.188402            1957.052601     
4               GSC2         16 Jul 2025 05:09:51.736     302.468038        8.568598            1928.728021     
4               GSC2         16 Jul 2025 05:09:56.736     302.990266        8.954459            1900.564314     
4               GSC2         16 Jul 2025 05:10:01.736     303.529179        9.346111            1872.569641     
4               GSC2         16 Jul 2025 05:10:06.736     304.085535        9.743683            1844.751979     
4               GSC2         16 Jul 2025 05:10:11.736     304.660124        10.147294           1817.120218     
4               GSC2         16 Jul 2025 05:10:16.736     305.253770        10.557051           1789.684015     
4               GSC2         16 Jul 2025 05:10:21.736     305.867342        10.973054           1762.453384     
4               GSC2         16 Jul 2025 05:10:26.736     306.501765        11.395404           1735.438282     
4               GSC2         16 Jul 2025 05:10:31.736     307.158002        11.824182           1708.649664     
4               GSC2         16 Jul 2025 05:10:36.736     307.837054        12.259447           1682.099373     
4               GSC2         16 Jul 2025 05:10:41.736     308.539976        12.701244           1655.799726     
4               GSC2         16 Jul 2025 05:10:46.736     309.267886        13.149607           1629.763122     
4               GSC2         16 Jul 2025 05:10:51.736     310.021946        13.604536           1604.003085     
4               GSC2         16 Jul 2025 05:10:56.736     310.803358        14.065999           1578.534136     
4               GSC2         16 Jul 2025 05:11:01.736     311.613383        14.533930           1553.371404     
4               GSC2         16 Jul 2025 05:11:06.736     312.453349        15.008236           1528.530278     
4               GSC2         16 Jul 2025 05:11:11.736     313.324625        15.488773           1504.027370     
4               GSC2         16 Jul 2025 05:11:16.736     314.228623        15.975338           1479.880413     
4               GSC2         16 Jul 2025 05:11:21.736     315.166801        16.467675           1456.107893     
4               GSC2         16 Jul 2025 05:11:26.736     316.140685        16.965472           1432.728689     
4               GSC2         16 Jul 2025 05:11:31.736     317.151827        17.468336           1409.763011     
4               GSC2         16 Jul 2025 05:11:36.736     318.201800        17.975789           1387.232276     
4               GSC2         16 Jul 2025 05:11:41.736     319.292205        18.487260           1365.158740     
4               GSC2         16 Jul 2025 05:11:46.736     320.424680        19.002092           1343.565160     
4               GSC2         16 Jul 2025 05:11:51.736     321.600853        19.519510           1322.475643     
4               GSC2         16 Jul 2025 05:11:56.736     322.822322        20.038608           1301.915494     
4               GSC2         16 Jul 2025 05:12:01.736     324.090656        20.558358           1281.910840     
4               GSC2         16 Jul 2025 05:12:06.736     325.407401        21.077600           1262.488284     
4               GSC2         16 Jul 2025 05:12:11.736     326.774002        21.595021           1243.675641     
4               GSC2         16 Jul 2025 05:12:16.736     328.191782        22.109142           1225.501721     
4               GSC2         16 Jul 2025 05:12:21.736     329.661926        22.618330           1207.995926     
4               GSC2         16 Jul 2025 05:12:26.736     331.185472        23.120798           1191.187888     
4               GSC2         16 Jul 2025 05:12:31.736     332.763218        23.614585           1175.108018     
4               GSC2         16 Jul 2025 05:12:36.736     334.395679        24.097565           1159.787222     
4               GSC2         16 Jul 2025 05:12:41.736     336.083066        24.567462           1145.256442     
4               GSC2         16 Jul 2025 05:12:46.736     337.825271        25.021872           1131.546253     
4               GSC2         16 Jul 2025 05:12:51.736     339.621751        25.458260           1118.687218     
4               GSC2         16 Jul 2025 05:12:56.736     341.471492        25.873994           1106.709500     
4               GSC2         16 Jul 2025 05:13:01.736     343.372991        26.266378           1095.642370     
4               GSC2         16 Jul 2025 05:13:06.736     345.324252        26.632701           1085.513783     
4               GSC2         16 Jul 2025 05:13:11.736     347.322692        26.970261           1076.350531     
4               GSC2         16 Jul 2025 05:13:16.736     349.365125        27.276421           1068.177808     
4               GSC2         16 Jul 2025 05:13:21.736     351.447796        27.548664           1061.018747     
4               GSC2         16 Jul 2025 05:13:26.736     353.566426        27.784656           1054.894048     
4               GSC2         16 Jul 2025 05:13:31.736     355.716168        27.982288           1049.822003     
4               GSC2         16 Jul 2025 05:13:36.736     357.891662        28.139729           1045.818127     
4               GSC2         16 Jul 2025 05:13:41.736     0.087139          28.255483           1042.894831     
4               GSC2         16 Jul 2025 05:13:46.736     2.296540          28.328433           1041.061233     
4               GSC2         16 Jul 2025 05:13:51.736     4.513530          28.357860           1040.323174     
4               GSC2         16 Jul 2025 05:13:56.736     6.731618          28.343470           1040.683022     
4               GSC2         16 Jul 2025 05:14:01.736     8.944305          28.285409           1042.139608     
4               GSC2         16 Jul 2025 05:14:06.736     11.145232         28.184248           1044.688318     
4               GSC2         16 Jul 2025 05:14:11.736     13.328212         28.040974           1048.321150     
4               GSC2         16 Jul 2025 05:14:16.736     15.487338         27.856958           1053.026763     
4               GSC2         16 Jul 2025 05:14:21.736     17.617110         27.633920           1058.790686     
4               GSC2         16 Jul 2025 05:14:26.736     19.712540         27.373875           1065.595675     
4               GSC2         16 Jul 2025 05:14:31.736     21.769128         27.079091           1073.421788     
4               GSC2         16 Jul 2025 05:14:36.736     23.782911         26.752029           1082.246601     
4               GSC2         16 Jul 2025 05:14:41.736     25.750516         26.395291           1092.045607     
4               GSC2         16 Jul 2025 05:14:46.736     27.669191         26.011556           1102.792731     
4               GSC2         16 Jul 2025 05:14:51.736     29.536723         25.603542           1114.460302     
4               GSC2         16 Jul 2025 05:14:56.736     31.351420         25.173957           1127.019322     
4               GSC2         16 Jul 2025 05:15:01.736     33.112111         24.725458           1140.439936     
4               GSC2         16 Jul 2025 05:15:06.736     34.818132         24.260609           1154.691958     
4               GSC2         16 Jul 2025 05:15:11.736     36.469213         23.781865           1169.744669     
4               GSC2         16 Jul 2025 05:15:16.736     38.065439         23.291555           1185.567043     
4               GSC2         16 Jul 2025 05:15:21.736     39.607234         22.791853           1202.128184     
4               GSC2         16 Jul 2025 05:15:26.736     41.095334         22.284769           1219.397823     
4               GSC2         16 Jul 2025 05:15:31.736     42.530682         21.772156           1237.345883     
4               GSC2         16 Jul 2025 05:15:36.736     43.914401         21.255706           1255.942654     
4               GSC2         16 Jul 2025 05:15:41.736     45.247775         20.736945           1275.159163     
4               GSC2         16 Jul 2025 05:15:46.736     46.532237         20.217235           1294.967626     
4               GSC2         16 Jul 2025 05:15:51.736     47.769287         19.697793           1315.340827     
4               GSC2         16 Jul 2025 05:15:56.736     48.960473         19.179698           1336.252221     
4               GSC2         16 Jul 2025 05:16:01.736     50.107392         18.663893           1357.676281     
4               GSC2         16 Jul 2025 05:16:06.736     51.211684         18.151187           1379.588907     
4               GSC2         16 Jul 2025 05:16:11.736     52.274973         17.642283           1401.966665     
4               GSC2         16 Jul 2025 05:16:16.736     53.298863         17.137787           1424.786851     
4               GSC2         16 Jul 2025 05:16:21.736     54.284939         16.638203           1448.027836     
4               GSC2         16 Jul 2025 05:16:26.736     55.234782         16.143946           1471.669445     
4               GSC2         16 Jul 2025 05:16:31.736     56.149916         15.655359           1495.692113     
4               GSC2         16 Jul 2025 05:16:36.736     57.031812         15.172722           1520.076930     
4               GSC2         16 Jul 2025 05:16:41.736     57.881901         14.696253           1544.805981     
4               GSC2         16 Jul 2025 05:16:46.736     58.701584         14.226107           1569.862750     
4               GSC2         16 Jul 2025 05:16:51.736     59.492194         13.762399           1595.231187     
4               GSC2         16 Jul 2025 05:16:56.736     60.255005         13.305209           1620.895768     
4               GSC2         16 Jul 2025 05:17:01.736     60.991243         12.854579           1646.841841     
4               GSC2         16 Jul 2025 05:17:06.736     61.702097         12.410510           1673.056051     
4               GSC2         16 Jul 2025 05:17:11.736     62.388693         11.972985           1699.525353     
4               GSC2         16 Jul 2025 05:17:16.736     63.052098         11.541967           1726.237076     
4               GSC2         16 Jul 2025 05:17:21.736     63.693335         11.117399           1753.179308     
4               GSC2         16 Jul 2025 05:17:26.736     64.313391         10.699201           1780.341310     
4               GSC2         16 Jul 2025 05:17:31.736     64.913198         10.287282           1807.712517     
4               GSC2         16 Jul 2025 05:17:36.736     65.493637         9.881547            1835.282596     
4               GSC2         16 Jul 2025 05:17:41.736     66.055548         9.481889            1863.041861     
4               GSC2         16 Jul 2025 05:17:46.736     66.599744         9.088185            1890.981699     
4               GSC2         16 Jul 2025 05:17:51.736     67.126988         8.700315            1919.093539     
4               GSC2         16 Jul 2025 05:17:56.736     67.638001         8.318156            1947.368937     
4               GSC2         16 Jul 2025 05:18:01.736     68.133471         7.941581            1975.799985     
4               GSC2         16 Jul 2025 05:18:06.736     68.614063         7.570452            2004.379783     
4               GSC2         16 Jul 2025 05:18:11.736     69.080400         7.204639            2033.101346     
4               GSC2         16 Jul 2025 05:18:16.736     69.533072         6.844010            2061.957735     
4               GSC2         16 Jul 2025 05:18:21.736     69.972641         6.488436            2090.942467     
4               GSC2         16 Jul 2025 05:18:26.736     70.399650         6.137780            2120.049983     
4               GSC2         16 Jul 2025 05:18:31.736     70.814611         5.791911            2149.274581     
4               GSC2         16 Jul 2025 05:18:36.736     71.218004         5.450703            2178.610510     
4               GSC2         16 Jul 2025 05:18:41.736     71.610289         5.114031            2208.052421     
4               GSC2         16 Jul 2025 05:18:43.444     71.741875         5.000000            2218.136735     

5               GSC2         16 Jul 2025 06:51:16.813     292.482610        5.000000            2218.306496     
5               GSC2         16 Jul 2025 06:51:21.813     292.723527        5.356851            2186.943512     
5               GSC2         16 Jul 2025 06:51:26.813     292.971642        5.719580            2155.632328     
5               GSC2         16 Jul 2025 06:51:31.813     293.227291        6.088419            2124.376091     
5               GSC2         16 Jul 2025 06:51:36.813     293.490831        6.463609            2093.178447     
5               GSC2         16 Jul 2025 06:51:41.813     293.762639        6.845402            2062.043050     
5               GSC2         16 Jul 2025 06:51:46.813     294.043122        7.234074            2030.973080     
5               GSC2         16 Jul 2025 06:51:51.813     294.332709        7.629905            1999.972449     
5               GSC2         16 Jul 2025 06:51:56.813     294.631856        8.033185            1969.045598     
5               GSC2         16 Jul 2025 06:52:01.813     294.941047        8.444220            1938.197045     
5               GSC2         16 Jul 2025 06:52:06.813     295.260805        8.863340            1907.430916     
5               GSC2         16 Jul 2025 06:52:11.813     295.591687        9.290884            1876.752106     
5               GSC2         16 Jul 2025 06:52:16.813     295.934280        9.727201            1846.166133     
5               GSC2         16 Jul 2025 06:52:21.813     296.289218        10.172660           1815.678662     
5               GSC2         16 Jul 2025 06:52:26.813     296.657182        10.627655           1785.295064     
5               GSC2         16 Jul 2025 06:52:31.813     297.038899        11.092594           1755.021566     
5               GSC2         16 Jul 2025 06:52:36.813     297.435145        11.567895           1724.865116     
5               GSC2         16 Jul 2025 06:52:41.813     297.846753        12.053995           1694.832930     
5               GSC2         16 Jul 2025 06:52:46.813     298.274627        12.551366           1664.932043     
5               GSC2         16 Jul 2025 06:52:51.813     298.719733        13.060485           1635.170485     
5               GSC2         16 Jul 2025 06:52:56.813     299.183104        13.581847           1605.557138     
5               GSC2         16 Jul 2025 06:53:01.813     299.665859        14.115964           1576.101301     
5               GSC2         16 Jul 2025 06:53:06.813     300.169209        14.663379           1546.812286     
5               GSC2         16 Jul 2025 06:53:11.813     300.694458        15.224643           1517.700561     
5               GSC2         16 Jul 2025 06:53:16.813     301.243006        15.800317           1488.777635     
5               GSC2         16 Jul 2025 06:53:21.813     301.816371        16.390976           1460.055657     
5               GSC2         16 Jul 2025 06:53:26.813     302.416206        16.997218           1431.547024     
5               GSC2         16 Jul 2025 06:53:31.813     303.044291        17.619641           1403.265528     
5               GSC2         16 Jul 2025 06:53:36.813     303.702550        18.258836           1375.226272     
5               GSC2         16 Jul 2025 06:53:41.813     304.393071        18.915391           1347.445270     
5               GSC2         16 Jul 2025 06:53:46.813     305.118132        19.589900           1319.939125     
5               GSC2         16 Jul 2025 06:53:51.813     305.880197        20.282927           1292.726146     
5               GSC2         16 Jul 2025 06:53:56.813     306.681931        20.994991           1265.826293     
5               GSC2         16 Jul 2025 06:54:01.813     307.526232        21.726571           1239.260807     
5               GSC2         16 Jul 2025 06:54:06.813     308.416262        22.478099           1213.051942     
5               GSC2         16 Jul 2025 06:54:11.813     309.355443        23.249913           1187.224052     
5               GSC2         16 Jul 2025 06:54:16.813     310.347473        24.042230           1161.803540     
5               GSC2         16 Jul 2025 06:54:21.813     311.396366        24.855134           1136.818543     
5               GSC2         16 Jul 2025 06:54:26.813     312.506485        25.688558           1112.298670     
5               GSC2         16 Jul 2025 06:54:31.813     313.682525        26.542206           1088.276060     
5               GSC2         16 Jul 2025 06:54:36.813     314.929532        27.415510           1064.785294     
5               GSC2         16 Jul 2025 06:54:41.813     316.252922        28.307595           1041.863090     
5               GSC2         16 Jul 2025 06:54:46.813     317.658508        29.217226           1019.548040     
5               GSC2         16 Jul 2025 06:54:51.813     319.152441        30.142710           997.881514      
5               GSC2         16 Jul 2025 06:54:56.813     320.741186        31.081818           976.907496      
5               GSC2         16 Jul 2025 06:55:01.813     322.431485        32.031721           956.672194      
5               GSC2         16 Jul 2025 06:55:06.813     324.230315        32.988924           937.223672      
5               GSC2         16 Jul 2025 06:55:11.813     326.144705        33.949135           918.612461      
5               GSC2         16 Jul 2025 06:55:16.813     328.181577        34.907193           900.891170      
5               GSC2         16 Jul 2025 06:55:21.813     330.347550        35.857014           884.113867      
5               GSC2         16 Jul 2025 06:55:26.813     332.648695        36.791557           868.335440      
5               GSC2         16 Jul 2025 06:55:31.813     335.090103        37.702768           853.611742      
5               GSC2         16 Jul 2025 06:55:36.813     337.675456        38.581612           839.998801      
5               GSC2         16 Jul 2025 06:55:41.813     340.406574        39.418174           827.551846      
5               GSC2         16 Jul 2025 06:55:46.813     343.282919        40.201832           816.324335      
